Yelp_id	Address	Name	Price	Rating	Review Count	Latitude	Longitude	City	Zipcode	Category1	Category2	Category3	County	Tract
the-tenderloin-la-verne	{'address1': '2080 Foothill Blvd', 'address2': '', 'address3': '', 'city': 'La Verne', 'zip_code': '91750', 'country': 'US', 'state': 'CA', 'display_address': ['2080 Foothill Blvd', 'La Verne, CA 91750']}	The Tenderloin	2	3.0	126	-117.76683	34.11298	La Verne	91750	Steakhouses			Los Angeles County	401602.0
red-devil-pizza-la-verne	{'address1': '1465 Foothill Blvd', 'address2': '', 'address3': '', 'city': 'La Verne', 'zip_code': '91750', 'country': 'US', 'state': 'CA', 'display_address': ['1465 Foothill Blvd', 'La Verne, CA 91750']}	Red Devil Pizza	2	4.0	243	-117.7761212	34.1172187	La Verne	91750	Italian	Pizza		Los Angeles County	401601.0
papalitos-tacos-la-verne	{'address1': 'La Verne Ca', 'address2': '', 'address3': '', 'city': 'La Verne', 'zip_code': '91750', 'country': 'US', 'state': 'CA', 'display_address': ['La Verne Ca', 'La Verne, CA 91750']}	Papalito's Tacos	1	5.0	4	-117.752052307129	34.1477661132812	La Verne	91750	Street Vendors	Caterers	Mexican	Los Angeles County	400205.0
bangkok-blue-thai-cuisine-la-verne-3	{'address1': '2300 Foothill Blvd', 'address2': 'Ste C', 'address3': '', 'city': 'La Verne', 'zip_code': '91750', 'country': 'US', 'state': 'CA', 'display_address': ['2300 Foothill Blvd', 'Ste C', 'La Verne, CA 91750']}	Bangkok Blue Thai Cuisine	2	4.0	216	-117.76212	34.11193	La Verne	91750	Thai	Seafood	Chicken Wings	Los Angeles County	401602.0
mi-ranchito-restaurant-and-cantina-la-verne	{'address1': '1437 Foothill Blvd', 'address2': '', 'address3': '', 'city': 'La Verne', 'zip_code': '91750', 'country': 'US', 'state': 'CA', 'display_address': ['1437 Foothill Blvd', 'La Verne, CA 91750']}	Mi Ranchito Restaurant & Cantina	2	3.0	125	-117.7765097	34.117354999999996	La Verne	91750	Mexican			Los Angeles County	401601.0
rubios-coastal-grill-la-verne	{'address1': '2204 Foothill Blvd', 'address2': '', 'address3': '', 'city': 'La Verne', 'zip_code': '91750', 'country': 'US', 'state': 'CA', 'display_address': ['2204 Foothill Blvd', 'La Verne, CA 91750']}	Rubio's Coastal Grill	1	3.5	95	-117.7628682	34.112350299999996	La Verne	91750	Mexican	Seafood	Salad	Los Angeles County	401602.0
panera-bread-la-verne-2	{'address1': '2315 Foothill Blvd', 'address2': '', 'address3': '', 'city': 'La Verne', 'zip_code': '91750', 'country': 'US', 'state': 'CA', 'display_address': ['2315 Foothill Blvd', 'La Verne, CA 91750']}	Panera Bread	2	2.5	194	-117.76125490665399	34.1124396793997	La Verne	91750	Sandwiches	Salad	Soup	Los Angeles County	401601.0
sidekick-cafe-san-dimas	{'address1': '425 W Allen Ave', 'address2': 'Ste 103', 'address3': '', 'city': 'San Dimas', 'zip_code': '91773', 'country': 'US', 'state': 'CA', 'display_address': ['425 W Allen Ave', 'Ste 103', 'San Dimas, CA 91773']}	Sidekick Cafe	1	4.0	8	-117.8143929	34.117674900000004	San Dimas	91773	Cafes			Los Angeles County	401311.0
pizzan-stuff-la-verne	{'address1': '1532 Foothill Blvd', 'address2': '', 'address3': '', 'city': 'La Verne', 'zip_code': '91750', 'country': 'US', 'state': 'CA', 'display_address': ['1532 Foothill Blvd', 'La Verne, CA 91750']}	Pizza'n Stuff	2	4.0	124	-117.77383789999999	34.1160083	La Verne	91750	Pizza	Italian	Sandwiches	Los Angeles County	401603.0
pizza-barn-la-verne	{'address1': '2021 Foothill Blvd', 'address2': '', 'address3': '', 'city': 'La Verne', 'zip_code': '91750', 'country': 'US', 'state': 'CA', 'display_address': ['2021 Foothill Blvd', 'La Verne, CA 91750']}	Pizza Barn	1	4.0	97	-117.76618	34.113910499999996	La Verne	91750	Pizza	Italian	Sandwiches	Los Angeles County	401601.0
chilis-la-verne	{'address1': '1912 Foothill Blvd', 'address2': '', 'address3': '', 'city': 'La Verne', 'zip_code': '91750', 'country': 'US', 'state': 'CA', 'display_address': ['1912 Foothill Blvd', 'La Verne, CA 91750']}	Chili's	2	2.5	144	-117.76906090000001	34.1144324	La Verne	91750	American (Traditional)	Bars	Tex-Mex	Los Angeles County	401602.0
jimmy-johns-la-verne-5	{'address1': '2320 Foothill Blvd', 'address2': 'Ste C', 'address3': '', 'city': 'La Verne', 'zip_code': '91750', 'country': 'US', 'state': 'CA', 'display_address': ['2320 Foothill Blvd', 'Ste C', 'La Verne, CA 91750']}	Jimmy John's	1	3.0	96	-117.76172	34.1108	La Verne	91750	Sandwiches			Los Angeles County	401602.0
albertos-mexican-food-la-verne	{'address1': '1351 Foothill Blvd', 'address2': '', 'address3': '', 'city': 'La Verne', 'zip_code': '91750', 'country': 'US', 'state': 'CA', 'display_address': ['1351 Foothill Blvd', 'La Verne, CA 91750']}	Alberto's Mexican Food	1	2.5	34	-117.77823597192801	34.1184203799555	La Verne	91750	Mexican			Los Angeles County	401601.0
chile-bandido-san-dimas-3	{'address1': '714 E Foothill Blvd', 'address2': '', 'address3': '', 'city': 'San Dimas', 'zip_code': '91773', 'country': 'US', 'state': 'CA', 'display_address': ['714 E Foothill Blvd', 'San Dimas, CA 91773']}	Chile Bandido	1	3.5	54	-117.79331669211399	34.1222148388624	San Dimas	91773	Mexican	Fast Food		Los Angeles County	400302.0
sergios-mexican-restaurant-la-verne	{'address1': '2091 Foothill Blvd', 'address2': '', 'address3': '', 'city': 'La Verne', 'zip_code': '91750', 'country': 'US', 'state': 'CA', 'display_address': ['2091 Foothill Blvd', 'La Verne, CA 91750']}	Sergio's Mexican Restaurant	2	3.5	60	-117.76541170000002	34.1136422	La Verne	91750	Mexican	Desserts	Seafood	Los Angeles County	401601.0
in-n-out-burger-la-verne	{'address1': '2098 Foothill Blvd', 'address2': '', 'address3': '', 'city': 'La Verne', 'zip_code': '91750', 'country': 'US', 'state': 'CA', 'display_address': ['2098 Foothill Blvd', 'La Verne, CA 91750']}	In-N-Out Burger	1	4.0	95	-117.765611148549	34.1131465521369	La Verne	91750	Fast Food	Burgers		Los Angeles County	401602.0
ranch-town-liquor-store-san-dimas	{'address1': '1112 N San Dimas Ave', 'address2': '', 'address3': '', 'city': 'San Dimas', 'zip_code': '91773', 'country': 'US', 'state': 'CA', 'display_address': ['1112 N San Dimas Ave', 'San Dimas, CA 91773']}	Ranch Town Liquor Store	1	3.5	36	-117.80672	34.121959999999994	San Dimas	91773	Convenience Stores	Beer, Wine & Spirits	Delis	Los Angeles County	400403.0
star-wok-claremont	{'address1': '2062 N Mills Ave', 'address2': '', 'address3': '', 'city': 'Claremont', 'zip_code': '91711', 'country': 'US', 'state': 'CA', 'display_address': ['2062 N Mills Ave', 'Claremont, CA 91711']}	Star Wok	1	3.0	51	-117.707105800509	34.1209555417299	Claremont	91711	Chinese			Los Angeles County	401800.0
stater-bros-markets-la-verne-3	{'address1': '2090 Foothill Blvd', 'address2': '', 'address3': '', 'city': 'La Verne', 'zip_code': '91750', 'country': 'US', 'state': 'CA', 'display_address': ['2090 Foothill Blvd', 'La Verne, CA 91750']}	Stater Bros. Markets	2	3.0	28	-117.76607299999999	34.112576000000004	La Verne	91750	Grocery	Delis	Butcher	Los Angeles County	401602.0
sals-pizza-and-bagelry-la-verne-2	{'address1': '2095 Foothill Blvd', 'address2': '', 'address3': '', 'city': 'La Verne', 'zip_code': '91750', 'country': 'US', 'state': 'CA', 'display_address': ['2095 Foothill Blvd', 'La Verne, CA 91750']}	Sal's Pizza and Bagelry	1	3.5	209	-117.765311721095	34.1138259407899	La Verne	91750	Bagels	Pizza	Italian	Los Angeles County	401601.0
kosmos-burgers-ii-san-dimas	{'address1': '416 E Foothill Blvd', 'address2': '', 'address3': '', 'city': 'San Dimas', 'zip_code': '91773', 'country': 'US', 'state': 'CA', 'display_address': ['416 E Foothill Blvd', 'San Dimas, CA 91773']}	Kosmos Burgers II	1	3.0	161	-117.80021667480499	34.123138427734396	San Dimas	91773	Burgers	Fast Food		Los Angeles County	400403.0
la-verne-pizza-co-la-verne	{'address1': '3836 Emerald Ave', 'address2': '', 'address3': '', 'city': 'La Verne', 'zip_code': '91750', 'country': 'US', 'state': 'CA', 'display_address': ['3836 Emerald Ave', 'La Verne, CA 91750']}	La Verne Pizza Co.	1	3.0	57	-117.7680122	34.115389799999996	La Verne	91750	Pizza			Los Angeles County	401601.0
chef-cs-smhokin-pot-gardena-7	{'address1': None, 'address2': None, 'address3': '', 'city': 'Gardena', 'zip_code': '90249', 'country': 'US', 'state': 'CA', 'display_address': ['Gardena, CA 90249']}	Chef C's Smhokin Pot	2	4.5	26	-118.317733764648	33.9011001586914	Gardena	90249	Cajun/Creole	Food Trucks	Barbeque	Los Angeles County	603500.0
fettes-schwein-food-truck-los-angeles-3	{'address1': '', 'address2': '', 'address3': '', 'city': 'Los Angeles', 'zip_code': '90011', 'country': 'US', 'state': 'CA', 'display_address': ['Los Angeles, CA 90011']}	Fettes Schwein Food Truck	1	4.5	14	-118.259078979492	34.0047569274902	Los Angeles	90011	Food Trucks	Hot Dogs	Burgers	Los Angeles County	228600.0
round-table-pizza-claremont-2	{'address1': '598 E Baseline Rd', 'address2': '', 'address3': '', 'city': 'Claremont', 'zip_code': '91711', 'country': 'US', 'state': 'CA', 'display_address': ['598 E Baseline Rd', 'Claremont, CA 91711']}	Round Table Pizza	2	3.5	44	-117.7055479	34.1214851	Claremont	91711	Pizza			Los Angeles County	401800.0
wingstop-la-verne	{'address1': '2369 Foothill Blvd', 'address2': '', 'address3': '', 'city': 'La Verne', 'zip_code': '91750', 'country': 'US', 'state': 'CA', 'display_address': ['2369 Foothill Blvd', 'La Verne, CA 91750']}	Wingstop	2	2.5	75	-117.7596371	34.111728799999995	La Verne	91750	Chicken Wings			Los Angeles County	401601.0
jersey-mikes-subs-la-verne	{'address1': '2212 Foothill Blvd', 'address2': '', 'address3': '', 'city': 'La Verne', 'zip_code': '91750', 'country': 'US', 'state': 'CA', 'display_address': ['2212 Foothill Blvd', 'La Verne, CA 91750']}	Jersey Mike's Subs	2	3.5	77	-117.76313396772	34.1120166017592	La Verne	91750	Sandwiches	Fast Food	Delis	Los Angeles County	401602.0
mcdonalds-la-verne-2	{'address1': '2269 Foothill Blvd', 'address2': None, 'address3': None, 'city': 'La Verne', 'zip_code': '91750', 'country': 'US', 'state': 'CA', 'display_address': ['2269 Foothill Blvd', 'La Verne, CA 91750']}	McDonald's	1	3.0	84	-117.76201699999999	34.112794	La Verne	91750	Coffee & Tea	Burgers	Fast Food	Los Angeles County	401601.0
fukuya-sushi-la-verne	{'address1': '2084 Foothill Blvd', 'address2': 'Ste C', 'address3': '', 'city': 'La Verne', 'zip_code': '91750', 'country': 'US', 'state': 'CA', 'display_address': ['2084 Foothill Blvd', 'Ste C', 'La Verne, CA 91750']}	Fukuya Sushi	2	3.5	113	-117.76611329999999	34.11343770000001	La Verne	91750	Sushi Bars	Japanese		Los Angeles County	401602.0
togos-sandwiches-la-verne	{'address1': '1253 Foothill Blvd', 'address2': '', 'address3': '', 'city': 'La Verne', 'zip_code': '91750', 'country': 'US', 'state': 'CA', 'display_address': ['1253 Foothill Blvd', 'La Verne, CA 91750']}	TOGO'S Sandwiches	1	4.0	59	-117.7800058	34.118519899999995	La Verne	91750	Sandwiches	Delis	Fast Food	Los Angeles County	401601.0
the-tropic-truck-los-angeles-5	{'address1': None, 'address2': None, 'address3': '', 'city': 'Los Angeles', 'zip_code': '90027', 'country': 'US', 'state': 'CA', 'display_address': ['Los Angeles, CA 90027']}	The Tropic Truck	2	4.0	50	-118.30206000000001	34.10161	Los Angeles	90027	Food Trucks	Caribbean	Caterers	Los Angeles County	190520.0
okamoto-kitchen-los-angeles-2	{'address1': None, 'address2': None, 'address3': '', 'city': 'Los Angeles', 'zip_code': '91423', 'country': 'US', 'state': 'CA', 'display_address': ['Los Angeles, CA 91423']}	Okamoto Kitchen	2	4.5	168	-118.42539678840599	34.1463062227897	Los Angeles	91423	Food Trucks	Japanese	Caterers	Los Angeles County	141102.0
subway-la-verne	{'address1': '2145 Foothill Blvd', 'address2': 'Ste B', 'address3': '', 'city': 'La Verne', 'zip_code': '91750', 'country': 'US', 'state': 'CA', 'display_address': ['2145 Foothill Blvd', 'Ste B', 'La Verne, CA 91750']}	Subway	1	4.0	16	-117.7635014	34.113012299999994	La Verne	91750	Sandwiches	Fast Food		Los Angeles County	401601.0
white-rabbit-truck-los-angeles-4	{'address1': None, 'address2': None, 'address3': '', 'city': 'Los Angeles', 'zip_code': '90012', 'country': 'US', 'state': 'CA', 'display_address': ['Los Angeles, CA 90012']}	White Rabbit Truck	1	3.5	569	-118.243949890137	34.056911468505895	Los Angeles	90012	Filipino	Food Trucks	Caterers	Los Angeles County	207400.0
subway-claremont-2	{'address1': '594 E Baseline Rd', 'address2': '', 'address3': '', 'city': 'Claremont', 'zip_code': '91711', 'country': 'US', 'state': 'CA', 'display_address': ['594 E Baseline Rd', 'Claremont, CA 91711']}	Subway	1	2.5	23	-117.7055838	34.1214851	Claremont	91711	Sandwiches	Fast Food		Los Angeles County	401800.0
alfredos-mexican-food-la-verne	{'address1': '914 Foothill Blvd', 'address2': '', 'address3': None, 'city': 'La Verne', 'zip_code': '91750', 'country': 'US', 'state': 'CA', 'display_address': ['914 Foothill Blvd', 'La Verne, CA 91750']}	Alfredo's Mexican Food		5.0	1	-117.788836869657	34.1208269512003	La Verne	91750	Mexican			Los Angeles County	400302.0
little-caesars-pizza-la-verne	{'address1': '2086 Foothill Blvd', 'address2': 'Ste C', 'address3': '', 'city': 'La Verne', 'zip_code': '91750', 'country': 'US', 'state': 'CA', 'display_address': ['2086 Foothill Blvd', 'Ste C', 'La Verne, CA 91750']}	Little Caesars Pizza	1	3.5	18	-117.76607620000001	34.1134219	La Verne	91750	Pizza			Los Angeles County	401602.0
chipotle-mexican-grill-la-verne	{'address1': '2298 Foothill Blvd', 'address2': '', 'address3': '', 'city': 'La Verne', 'zip_code': '91750', 'country': 'US', 'state': 'CA', 'display_address': ['2298 Foothill Blvd', 'La Verne, CA 91750']}	Chipotle Mexican Grill	1	2.5	161	-117.76193119999999	34.112046	La Verne	91750	Fast Food	Mexican		Los Angeles County	401602.0
tasty-goody-la-verne	{'address1': '1483 Foothill Blvd', 'address2': '', 'address3': '', 'city': 'La Verne', 'zip_code': '91750', 'country': 'US', 'state': 'CA', 'display_address': ['1483 Foothill Blvd', 'La Verne, CA 91750']}	Tasty Goody	1	3.0	59	-117.775364265162	34.1173793213056	La Verne	91750	Chinese	Fast Food		Los Angeles County	401601.0
el-pollo-loco-la-verne-2	{'address1': '2360 Foothill Blvd', 'address2': '', 'address3': '', 'city': 'La Verne', 'zip_code': '91750', 'country': 'US', 'state': 'CA', 'display_address': ['2360 Foothill Blvd', 'La Verne, CA 91750']}	El Pollo Loco	1	2.0	99	-117.760452270508	34.1113891601562	La Verne	91750	Fast Food	Mexican		Los Angeles County	401602.0
del-taco-la-verne	{'address1': '1398 Foothill Blvd', 'address2': '', 'address3': '', 'city': 'La Verne', 'zip_code': '91750', 'country': 'US', 'state': 'CA', 'display_address': ['1398 Foothill Blvd', 'La Verne, CA 91750']}	Del Taco	1	3.0	36	-117.77723	34.11698	La Verne	91750	Mexican	Fast Food		Los Angeles County	401603.0
subway-san-dimas-3	{'address1': '728 E Foothill', 'address2': '', 'address3': '', 'city': 'San Dimas', 'zip_code': '91773', 'country': 'US', 'state': 'CA', 'display_address': ['728 E Foothill', 'San Dimas, CA 91773']}	Subway	1	3.5	21	-117.7927797	34.1220461	San Dimas	91773	Sandwiches	Fast Food		Los Angeles County	400302.0
panda-express-la-verne	{'address1': '2371 Foothill Blvd', 'address2': '', 'address3': '', 'city': 'La Verne', 'zip_code': '91750', 'country': 'US', 'state': 'CA', 'display_address': ['2371 Foothill Blvd', 'La Verne, CA 91750']}	Panda Express	1	2.5	58	-117.75962659999998	34.1117257	La Verne	91750	Fast Food	Chinese		Los Angeles County	401601.0
jack-in-the-box-la-verne	{'address1': '1090 Foothill Blvd', 'address2': '', 'address3': '', 'city': 'La Verne', 'zip_code': '91750', 'country': 'US', 'state': 'CA', 'display_address': ['1090 Foothill Blvd', 'La Verne, CA 91750']}	Jack In The Box	1	2.5	27	-117.783851	34.119096	La Verne	91750	Fast Food			Los Angeles County	400302.0
carls-jr-la-verne	{'address1': '1400 Foothill Blvd', 'address2': '', 'address3': '', 'city': 'La Verne', 'zip_code': '91750', 'country': 'US', 'state': 'CA', 'display_address': ['1400 Foothill Blvd', 'La Verne, CA 91750']}	Carl's Jr	1	1.5	37	-117.77635586727699	34.116719558980996	La Verne	91750	Fast Food	Burgers		Los Angeles County	401603.0
pizza-hut-la-verne	{'address1': '2208 Foothill Blvd', 'address2': '', 'address3': '', 'city': 'La Verne', 'zip_code': '91750', 'country': 'US', 'state': 'CA', 'display_address': ['2208 Foothill Blvd', 'La Verne, CA 91750']}	Pizza Hut	2	2.0	25	-117.763265222311	34.1125917434692	La Verne	91750	Pizza	Italian	Chicken Wings	Los Angeles County	401602.0
mustache-mikes-365-long-beach	{'address1': 'Shore Line Aquatic Park', 'address2': None, 'address3': None, 'city': 'Long Beach', 'zip_code': '90801', 'country': 'US', 'state': 'CA', 'display_address': ['Shore Line Aquatic Park', 'Long Beach, CA 90801']}	Mustache Mikes 365	1	5.0	3	-118.197011612356	33.7624390089761	Long Beach	90801	Ice Cream & Frozen Yogurt	Food Stands	Italian	Los Angeles County	576001.0
shawarma-and-falafel-palace-food-truck-los-angeles	{'address1': '7782 San Fernando Rd', 'address2': None, 'address3': '', 'city': 'Los Angeles', 'zip_code': '91352', 'country': 'US', 'state': 'CA', 'display_address': ['7782 San Fernando Rd', 'Los Angeles, CA 91352']}	Shawarma and Falafel Palace Food Truck	1	1.0	1	-118.35861000000001	34.21332	Los Angeles	91352	Food Trucks	Middle Eastern		Los Angeles County	122200.0
tropical-mexico-pomona	{'address1': '1371 S E End Ave', 'address2': '', 'address3': '', 'city': 'Pomona', 'zip_code': '91766', 'country': 'US', 'state': 'CA', 'display_address': ['1371 S E End Ave', 'Pomona, CA 91766']}	Tropical Mexico	2	4.0	350	-117.72417949999999	34.0472021	Pomona	91766	Mexican	Seafood	Breakfast & Brunch	Los Angeles County	402804.0
the-whisper-house-claremont	{'address1': '502 W 1st St', 'address2': '', 'address3': '', 'city': 'Claremont', 'zip_code': '91711', 'country': 'US', 'state': 'CA', 'display_address': ['502 W 1st St', 'Claremont, CA 91711']}	The Whisper House	2	4.0	699	-117.720320696817	34.0945734870628	Claremont	91711	American (New)	Burgers	Cocktail Bars	Los Angeles County	401902.0
coco-palm-restaurant-pomona	{'address1': '1600 Fairplex Dr', 'address2': None, 'address3': '', 'city': 'Pomona', 'zip_code': '91768', 'country': 'US', 'state': 'CA', 'display_address': ['1600 Fairplex Dr', 'Pomona, CA 91768']}	Coco Palm Restaurant	3	4.0	716	-117.782207183328	34.0760139896287	Pomona	91768	Cuban	Breakfast & Brunch	Venues & Event Spaces	Los Angeles County	402200.0
cityplus-coffee-diamond-bar-2	{'address1': '1155 S Diamond Bar Blvd', 'address2': 'Ste A', 'address3': None, 'city': 'Diamond Bar', 'zip_code': '91765', 'country': 'US', 'state': 'CA', 'display_address': ['1155 S Diamond Bar Blvd', 'Ste A', 'Diamond Bar, CA 91765']}	Cityplus Coffee	2	5.0	32	-117.81145	34.00233	Diamond Bar	91765	Coffee & Tea	Creperies		Los Angeles County	403319.0
menkoi-ya-ramen-claremont-2	{'address1': '333 W Bonita Ave', 'address2': '', 'address3': None, 'city': 'Claremont', 'zip_code': '91711', 'country': 'US', 'state': 'CA', 'display_address': ['333 W Bonita Ave', 'Claremont, CA 91711']}	Menkoi Ya Ramen	2	4.0	92	-117.7182868	34.0967349	Claremont	91711	Ramen			Los Angeles County	401902.0
twisted-sage-cafe-and-catering-san-dimas	{'address1': '433 E Foothill Blvd', 'address2': '', 'address3': '', 'city': 'San Dimas', 'zip_code': '91773', 'country': 'US', 'state': 'CA', 'display_address': ['433 E Foothill Blvd', 'San Dimas, CA 91773']}	Twisted Sage Cafe & Catering	2	4.5	692	-117.8000888	34.1237338	San Dimas	91773	Cafes	Breakfast & Brunch		Los Angeles County	400403.0
rail-side-cafe-san-dimas	{'address1': '322 S San Dimas Ave', 'address2': '', 'address3': '', 'city': 'San Dimas', 'zip_code': '91773', 'country': 'US', 'state': 'CA', 'display_address': ['322 S San Dimas Ave', 'San Dimas, CA 91773']}	Rail Side Cafe	1	4.5	472	-117.8069951	34.1040463	San Dimas	91773	Coffee & Tea	Sandwiches	Breakfast & Brunch	Los Angeles County	400304.0
dickeys-barbecue-pit-pomona	{'address1': '2063 Rancho Valley Dr', 'address2': '', 'address3': '', 'city': 'Pomona', 'zip_code': '91766', 'country': 'US', 'state': 'CA', 'display_address': ['2063 Rancho Valley Dr', 'Pomona, CA 91766']}	Dickey's Barbecue Pit	2	4.0	91	-117.75931000000001	34.03525	Pomona	91766	Barbeque	American (Traditional)	Southern	Los Angeles County	403000.0
some-crust-bakery-claremont	{'address1': '119 Yale Ave', 'address2': '', 'address3': '', 'city': 'Claremont', 'zip_code': '91711', 'country': 'US', 'state': 'CA', 'display_address': ['119 Yale Ave', 'Claremont, CA 91711']}	Some Crust Bakery	1	4.0	878	-117.71817779541	34.0950775146484	Claremont	91711	Bakeries	Breakfast & Brunch	Cafes	Los Angeles County	401902.0
omanas-pomona	{'address1': '1050 W Holt Ave', 'address2': '', 'address3': '', 'city': 'Pomona', 'zip_code': '91768', 'country': 'US', 'state': 'CA', 'display_address': ['1050 W Holt Ave', 'Pomona, CA 91768']}	Omanas	1	4.5	78	-117.76763000000001	34.06167	Pomona	91768	Mexican			Los Angeles County	402304.0
alexs-tacos-pomona	{'address1': '941 E Mission Blvd', 'address2': '', 'address3': '', 'city': 'Pomona', 'zip_code': '91766', 'country': 'US', 'state': 'CA', 'display_address': ['941 E Mission Blvd', 'Pomona, CA 91766']}	Alex's Tacos	1	4.5	178	-117.738187909126	34.0557038801815	Pomona	91766	Mexican			Los Angeles County	402801.0
kittys-cafe-and-bakery-pomona	{'address1': '386 S Thomas St', 'address2': '', 'address3': '', 'city': 'Pomona', 'zip_code': '91766', 'country': 'US', 'state': 'CA', 'display_address': ['386 S Thomas St', 'Pomona, CA 91766']}	Kittys Cafe and Bakery	1	5.0	10	-117.751054465771	34.0561849835574	Pomona	91766	Bakeries	Cafes		Los Angeles County	408800.0
butter-cafe-and-bakery-san-dimas	{'address1': '671 East Bonita Ave', 'address2': 'Ste F', 'address3': '', 'city': 'San Dimas', 'zip_code': '91773', 'country': 'US', 'state': 'CA', 'display_address': ['671 East Bonita Ave', 'Ste F', 'San Dimas, CA 91773']}	Butter Cafe and Bakery	2	4.0	648	-117.79513999999999	34.10715	San Dimas	91773	Coffee & Tea	Breakfast & Brunch	Bakeries	Los Angeles County	400304.0
hilltops-jamaican-market-and-restaurant-a1-pomona	{'address1': '1061 E Holt Ave', 'address2': '', 'address3': '', 'city': 'Pomona', 'zip_code': '91767', 'country': 'US', 'state': 'CA', 'display_address': ['1061 E Holt Ave', 'Pomona, CA 91767']}	Hilltop's Jamaican Market & Restaurant A1	2	4.5	202	-117.729832	34.063219000000004	Pomona	91767	Caribbean	Grocery		Los Angeles County	402702.0
flying-rice-asian-kitchen-la-verne-2	{'address1': '1453 Foothill Blvd', 'address2': None, 'address3': '', 'city': 'La Verne', 'zip_code': '91750', 'country': 'US', 'state': 'CA', 'display_address': ['1453 Foothill Blvd', 'La Verne, CA 91750']}	Flying Rice Asian Kitchen	1	4.5	37	-117.77647000188801	34.117248474895504	La Verne	91750	Asian Fusion	Korean	American (New)	Los Angeles County	401601.0
grizzbys-biscuits-and-donuts-claremont	{'address1': '353 W Bonita Ave', 'address2': None, 'address3': '', 'city': 'Claremont', 'zip_code': '91711', 'country': 'US', 'state': 'CA', 'display_address': ['353 W Bonita Ave', 'Claremont, CA 91711']}	Grizzby's Biscuits & Donuts	1	4.0	218	-117.7187507	34.0967449	Claremont	91711	Donuts	Coffee & Tea	Sandwiches	Los Angeles County	401902.0
pappas-artisanal-la-verne-3	{'address1': '2232 D St', 'address2': 'Unit 101', 'address3': '', 'city': 'La Verne', 'zip_code': '91750', 'country': 'US', 'state': 'CA', 'display_address': ['2232 D St', 'Unit 101', 'La Verne, CA 91750']}	Pappas Artisanal	2	4.0	769	-117.77031181282301	34.099859842227	La Verne	91750	American (New)	Breakfast & Brunch	Pizza	Los Angeles County	401500.0
the-last-drop-cafe-claremont	{'address1': '119 Harvard Ave', 'address2': None, 'address3': '', 'city': 'Claremont', 'zip_code': '91711', 'country': 'US', 'state': 'CA', 'display_address': ['119 Harvard Ave', 'Claremont, CA 91711']}	The Last Drop Cafe	1	4.5	501	-117.7164283	34.095020500000004	Claremont	91711	Coffee & Tea	Sandwiches	Vegan	Los Angeles County	401902.0
mariscos-701-pomona	{'address1': '1648 Indian Hill Blvd', 'address2': '', 'address3': None, 'city': 'Pomona', 'zip_code': '91767', 'country': 'US', 'state': 'CA', 'display_address': ['1648 Indian Hill Blvd', 'Pomona, CA 91767']}	Mariscos 701	2	4.0	49	-117.718581260589	34.0745993237057	Pomona	91767	Seafood	Mexican	Sports Bars	Los Angeles County	402706.0
taco-gourmet-simply-fresh-pomona	{'address1': '3530 W Temple Ave', 'address2': None, 'address3': '', 'city': 'Pomona', 'zip_code': '91768', 'country': 'US', 'state': 'CA', 'display_address': ['3530 W Temple Ave', 'Pomona, CA 91768']}	Taco Gourmet Simply Fresh	1	4.5	113	-117.811149	34.048277399999996	Pomona	91768	Tacos			Los Angeles County	402402.0
pancakes-r-us-pomona	{'address1': '2282 N Garey Ave', 'address2': '', 'address3': '', 'city': 'Pomona', 'zip_code': '91767', 'country': 'US', 'state': 'CA', 'display_address': ['2282 N Garey Ave', 'Pomona, CA 91767']}	Pancakes R Us	2	4.0	247	-117.749271	34.089405	Pomona	91767	Breakfast & Brunch			Los Angeles County	402102.0
the-rookery-alehouse-and-grill-pomona	{'address1': '117 W 2nd St', 'address2': '', 'address3': '', 'city': 'Pomona', 'zip_code': '91766', 'country': 'US', 'state': 'CA', 'display_address': ['117 W 2nd St', 'Pomona, CA 91766']}	The Rookery Alehouse and Grill	2	4.0	368	-117.75045837829799	34.057953963333304	Pomona	91766	Gastropubs	American (New)	Burgers	Los Angeles County	408800.0
donahoos-golden-chicken-pomona	{'address1': '1074 N Garey Ave', 'address2': '', 'address3': '', 'city': 'Pomona', 'zip_code': '91767', 'country': 'US', 'state': 'CA', 'display_address': ['1074 N Garey Ave', 'Pomona, CA 91767']}	Donahoo's Golden Chicken	1	4.0	491	-117.75195430000001	34.0686684	Pomona	91767	Chicken Shop			Los Angeles County	402600.0
tijuanas-tacos-pomona	{'address1': '485 W Holt Ave', 'address2': 'Ste A', 'address3': '', 'city': 'Pomona', 'zip_code': '91768', 'country': 'US', 'state': 'CA', 'display_address': ['485 W Holt Ave', 'Ste A', 'Pomona, CA 91768']}	Tijuana's Tacos	1	4.0	624	-117.75653076171899	34.0625610351562	Pomona	91768	Mexican			Los Angeles County	402303.0
lilys-tacos-pomona-5	{'address1': '901 N Garey Ave', 'address2': '', 'address3': '', 'city': 'Pomona', 'zip_code': '91767', 'country': 'US', 'state': 'CA', 'display_address': ['901 N Garey Ave', 'Pomona, CA 91767']}	Lily's Tacos	1	4.0	239	-117.751667016185	34.066736933447196	Pomona	91767	Mexican			Los Angeles County	402303.0
pho-vina-pomona	{'address1': '281 S Thomas St', 'address2': 'Ste 103', 'address3': None, 'city': 'Pomona', 'zip_code': '91766', 'country': 'US', 'state': 'CA', 'display_address': ['281 S Thomas St', 'Ste 103', 'Pomona, CA 91766']}	Pho Vina	1	4.0	80	-117.751320315056	34.0569680268841	Pomona	91766	Vietnamese			Los Angeles County	408800.0
dilliwala-indian-kitchen-diamond-bar	{'address1': '303 S Diamond Bar Blvd', 'address2': 'Ste G', 'address3': '', 'city': 'Diamond Bar', 'zip_code': '91765', 'country': 'US', 'state': 'CA', 'display_address': ['303 S Diamond Bar Blvd', 'Ste G', 'Diamond Bar, CA 91765']}	Dilliwala Indian Kitchen	2	4.5	366	-117.81031000000002	34.01959	Diamond Bar	91765	Indian			Los Angeles County	403319.0
the-back-abbey-claremont	{'address1': '128 N Oberlin Ave', 'address2': '', 'address3': '', 'city': 'Claremont', 'zip_code': '91711', 'country': 'US', 'state': 'CA', 'display_address': ['128 N Oberlin Ave', 'Claremont, CA 91711']}	The Back Abbey	2	4.0	1731	-117.7205351	34.0949391	Claremont	91711	Burgers	Gastropubs	Sandwiches	Los Angeles County	401902.0
you-and-me-noodle-house-and-drinks-diamond-bar-2	{'address1': '1123 Grand Ave', 'address2': '', 'address3': None, 'city': 'Diamond Bar', 'zip_code': '91765', 'country': 'US', 'state': 'CA', 'display_address': ['1123 Grand Ave', 'Diamond Bar, CA 91765']}	You & Me Noodle House & Drinks	1	4.5	7	-117.8123618	34.0012655	Diamond Bar	91765	Noodles			Los Angeles County	403323.0
tonys-restaurant-pomona	{'address1': '986 E 2nd St', 'address2': '', 'address3': '', 'city': 'Pomona', 'zip_code': '91766', 'country': 'US', 'state': 'CA', 'display_address': ['986 E 2nd St', 'Pomona, CA 91766']}	Tony's Restaurant	1	4.0	102	-117.73748	34.05788	Pomona	91766	Sandwiches	French	Salad	Los Angeles County	402801.0
the-upper-house-claremont	{'address1': '352 S Indian Hill Blvd', 'address2': '', 'address3': None, 'city': 'Claremont', 'zip_code': '91711', 'country': 'US', 'state': 'CA', 'display_address': ['352 S Indian Hill Blvd', 'Claremont, CA 91711']}	The Upper House	2	4.5	113	-117.71823398888901	34.089474647980396	Claremont	91711	Chinese	Juice Bars & Smoothies	Bubble Tea	Los Angeles County	402002.0
phillips-ranch-health-bar-pomona-2	{'address1': '3040 W Temple Ave', 'address2': '', 'address3': '', 'city': 'Pomona', 'zip_code': '91766', 'country': 'US', 'state': 'CA', 'display_address': ['3040 W Temple Ave', 'Pomona, CA 91766']}	Phillips Ranch Health Bar	1	4.0	222	-117.7990456	34.0418271	Pomona	91766	Juice Bars & Smoothies	Salad	Breakfast & Brunch	Los Angeles County	402402.0
metro-ale-house-and-grill-pomona	{'address1': '197 East 2nd St', 'address2': None, 'address3': None, 'city': 'Pomona', 'zip_code': '91766', 'country': 'US', 'state': 'CA', 'display_address': ['197 East 2nd St', 'Pomona, CA 91766']}	Metro Ale House & Grill	2	4.0	257	-117.74914209999999	34.0581009	Pomona	91766	Pubs	American (New)	Sports Bars	Los Angeles County	408800.0
las-chicas-fresas-pomona	{'address1': '246 S Towne Ave', 'address2': '', 'address3': None, 'city': 'Pomona', 'zip_code': '91766', 'country': 'US', 'state': 'CA', 'display_address': ['246 S Towne Ave', 'Pomona, CA 91766']}	Las Chicas Fresas	1	4.0	40	-117.74113999999999	34.057790000000004	Pomona	91766	Mexican	Juice Bars & Smoothies		Los Angeles County	402801.0
boulevard-574-diamond-bar-3	{'address1': '574 N Diamond Bar Blvd', 'address2': '', 'address3': '', 'city': 'Diamond Bar', 'zip_code': '91765', 'country': 'US', 'state': 'CA', 'display_address': ['574 N Diamond Bar Blvd', 'Diamond Bar, CA 91765']}	Boulevard 574	2	4.0	293	-117.809710206949	34.030887070396	Diamond Bar	91765	Sandwiches	Gastropubs		Los Angeles County	403316.0
spicy-fish-pomona-2	{'address1': '1084 W Mission Blvd', 'address2': '', 'address3': None, 'city': 'Pomona', 'zip_code': '91766', 'country': 'US', 'state': 'CA', 'display_address': ['1084 W Mission Blvd', 'Pomona, CA 91766']}	Spicy Fish	2	4.5	23	-117.76271000000001	34.05437	Pomona	91766	Japanese	Korean		Los Angeles County	402501.0
king-bap-diamond-bar	{'address1': '1106 S Diamond Bar Blvd', 'address2': '', 'address3': None, 'city': 'Diamond Bar', 'zip_code': '91765', 'country': 'US', 'state': 'CA', 'display_address': ['1106 S Diamond Bar Blvd', 'Diamond Bar, CA 91765']}	King Bap	1	5.0	212	-117.809295239655	34.0025505259685	Diamond Bar	91765	Sushi Bars	Korean	Asian Fusion	Los Angeles County	403320.0
blue-angel-deli-cafe-pomona	{'address1': '3191 W Temple Ave', 'address2': 'Ste 110', 'address3': '', 'city': 'Pomona', 'zip_code': '91768', 'country': 'US', 'state': 'CA', 'display_address': ['3191 W Temple Ave', 'Ste 110', 'Pomona, CA 91768']}	Blue Angel Deli Cafe	1	5.0	24	-117.80471999999999	34.045809999999996	Pomona	91768	Japanese	Korean		Los Angeles County	403200.0
euro-cafe-claremont	{'address1': '546 E Baseline Rd', 'address2': '', 'address3': '', 'city': 'Claremont', 'zip_code': '91711', 'country': 'US', 'state': 'CA', 'display_address': ['546 E Baseline Rd', 'Claremont, CA 91711']}	Euro Cafe	1	4.0	484	-117.706691760599	34.1207505309619	Claremont	91711	Portuguese	Italian	Breakfast & Brunch	Los Angeles County	401800.0
you-and-me-dining-diamond-bar-24	{'address1': '1241 S Diamond Bar Blvd', 'address2': None, 'address3': '', 'city': 'Diamond Bar', 'zip_code': '91765', 'country': 'US', 'state': 'CA', 'display_address': ['1241 S Diamond Bar Blvd', 'Diamond Bar, CA 91765']}	You & Me Dining	2	4.0	138	-117.81192921101999	33.9998350292444	Diamond Bar	91765	Taiwanese	Karaoke		Los Angeles County	403323.0
la-tia-mexican-food-pomona	{'address1': '1175 E Holt Ave', 'address2': None, 'address3': '', 'city': 'Pomona', 'zip_code': '91767', 'country': 'US', 'state': 'CA', 'display_address': ['1175 E Holt Ave', 'Pomona, CA 91767']}	LA TIA mexican food	1	4.5	89	-117.72678	34.06342	Pomona	91767	Mexican			Los Angeles County	402702.0
ihop-pomona	{'address1': '50 Rio Rancho Rd', 'address2': '', 'address3': '', 'city': 'Pomona', 'zip_code': '91766', 'country': 'US', 'state': 'CA', 'display_address': ['50 Rio Rancho Rd', 'Pomona, CA 91766']}	IHOP	2	3.5	118	-117.760069	34.029109000000005	Pomona	91766	American (Traditional)	Breakfast & Brunch		Los Angeles County	403318.0
taqueria-de-anda-pomona	{'address1': '1690 S Garey Ave', 'address2': '', 'address3': '', 'city': 'Pomona', 'zip_code': '91766', 'country': 'US', 'state': 'CA', 'display_address': ['1690 S Garey Ave', 'Pomona, CA 91766']}	Taqueria De Anda	1	3.5	269	-117.74914	34.0408	Pomona	91766	Mexican			Los Angeles County	402902.0
50-fifty-asian-fusion-cuisine-claremont	{'address1': '201 N Indian Hill Blvd', 'address2': '', 'address3': '', 'city': 'Claremont', 'zip_code': '91711', 'country': 'US', 'state': 'CA', 'display_address': ['201 N Indian Hill Blvd', 'Claremont, CA 91711']}	50-Fifty Asian Fusion Cuisine	2	4.5	219	-117.719775	34.09608	Claremont	91711	Asian Fusion			Los Angeles County	401902.0
el-unico-pollo-taquero-pomona-2	{'address1': '794 E Mission Blvd', 'address2': '', 'address3': '', 'city': 'Pomona', 'zip_code': '91766', 'country': 'US', 'state': 'CA', 'display_address': ['794 E Mission Blvd', 'Pomona, CA 91766']}	El Unico Pollo Taquero	1	4.5	40	-117.7417483	34.0550459893633	Pomona	91766	Mexican	Barbeque		Los Angeles County	402801.0
miss-donuts-and-bagel-la-verne	{'address1': '2082 Bonita Ave', 'address2': '', 'address3': '', 'city': 'La Verne', 'zip_code': '91750', 'country': 'US', 'state': 'CA', 'display_address': ['2082 Bonita Ave', 'La Verne, CA 91750']}	Miss Donuts & Bagel	1	4.0	73	-117.7700999	34.1014604	La Verne	91750	Donuts	Bagels	Breakfast & Brunch	Los Angeles County	401500.0
makomae-japanese-cuisine-diamond-bar	{'address1': '868 N Diamond Bar Blvd', 'address2': '', 'address3': '', 'city': 'Diamond Bar', 'zip_code': '91765', 'country': 'US', 'state': 'CA', 'display_address': ['868 N Diamond Bar Blvd', 'Diamond Bar, CA 91765']}	Makomae Japanese Cuisine	2	4.5	197	-117.80597493391399	34.0344545348774	Diamond Bar	91765	Japanese	Sushi Bars		Los Angeles County	403316.0
o-donovans-restaurant-and-pub-pomona-2	{'address1': '101 E 3rd St', 'address2': '', 'address3': '', 'city': 'Pomona', 'zip_code': '91766', 'country': 'US', 'state': 'CA', 'display_address': ['101 E 3rd St', 'Pomona, CA 91766']}	O'Donovan's Restaurant & Pub	2	4.0	328	-117.75010379999999	34.0569362	Pomona	91766	American (Traditional)	Irish Pub	Cocktail Bars	Los Angeles County	408800.0
guasalmex-restaurant-pomona	{'address1': '150 W Holt Ave', 'address2': '', 'address3': '', 'city': 'Pomona', 'zip_code': '91768', 'country': 'US', 'state': 'CA', 'display_address': ['150 W Holt Ave', 'Pomona, CA 91768']}	Guasalmex Restaurant	1	4.0	176	-117.7515717	34.062216299999996	Pomona	91768	Mexican			Los Angeles County	408800.0
mi-mercadito-pomona	{'address1': '269 N Park Ave', 'address2': '', 'address3': 'Mi Mercadito Meat Market', 'city': 'Pomona', 'zip_code': '91768', 'country': 'US', 'state': 'CA', 'display_address': ['269 N Park Ave', 'Mi Mercadito Meat Market', 'Pomona, CA 91768']}	Mi Mercadito	1	4.5	45	-117.754943	34.060169	Pomona	91768	Grocery	Juice Bars & Smoothies	Mexican	Los Angeles County	408800.0
tacos-y-mariscos-el-pariente-pomona-2	{'address1': '805 E Philadelphia St', 'address2': None, 'address3': '', 'city': 'Pomona', 'zip_code': '91766', 'country': 'US', 'state': 'CA', 'display_address': ['805 E Philadelphia St', 'Pomona, CA 91766']}	Tacos Y Mariscos El Pariente	1	4.5	43	-117.74015045166	34.0338096618652	Pomona	91766	Mexican	Seafood		Los Angeles County	402903.0
the-orchard-restaurant-claremont	{'address1': '555 W Foothill Blvd', 'address2': '', 'address3': '', 'city': 'Claremont', 'zip_code': '91711', 'country': 'US', 'state': 'CA', 'display_address': ['555 W Foothill Blvd', 'Claremont, CA 91711']}	The Orchard Restaurant	2	4.5	34	-117.7238	34.1078	Claremont	91711	American (New)			Los Angeles County	401800.0
onishicho-ramen-pomona-4	{'address1': '504 E Foothill Blvd', 'address2': None, 'address3': None, 'city': 'Pomona', 'zip_code': '91767', 'country': 'US', 'state': 'CA', 'display_address': ['504 E Foothill Blvd', 'Pomona, CA 91767']}	Onishicho Ramen	1	4.0	576	-117.74113700000001	34.10688	Pomona	91767	Japanese	Barbeque		Los Angeles County	401704.0
j-sushi-and-ramen-pomona	{'address1': '18 Rancho Camino Dr', 'address2': '', 'address3': '', 'city': 'Pomona', 'zip_code': '91766', 'country': 'US', 'state': 'CA', 'display_address': ['18 Rancho Camino Dr', 'Pomona, CA 91766']}	J Sushi & Ramen	2	4.0	198	-117.75981556624201	34.0280844704734	Pomona	91766	Japanese			Los Angeles County	403318.0
j-and-js-bbq-and-fish-pomona	{'address1': '751 N Indian Hill Blvd', 'address2': '', 'address3': '', 'city': 'Pomona', 'zip_code': '91767', 'country': 'US', 'state': 'CA', 'display_address': ['751 N Indian Hill Blvd', 'Pomona, CA 91767']}	J & J's BBQ & Fish	2	4.0	150	-117.719770531514	34.0662331696383	Pomona	91767	Barbeque	Cajun/Creole	Soul Food	Los Angeles County	402702.0
poke-dot-claremont-2	{'address1': '175 N Indian Hill Blvd', 'address2': 'Ste B101A', 'address3': None, 'city': 'Claremont', 'zip_code': '91711', 'country': 'US', 'state': 'CA', 'display_address': ['175 N Indian Hill Blvd', 'Ste B101A', 'Claremont, CA 91711']}	Poke Dot	2	4.0	211	-117.719435244799	34.09537850837	Claremont	91711	Seafood	Hawaiian	Poke	Los Angeles County	401902.0
julies-cafe-diamond-bar	{'address1': '1138 S Diamond Bar Blvd', 'address2': '', 'address3': '', 'city': 'Diamond Bar', 'zip_code': '91765', 'country': 'US', 'state': 'CA', 'display_address': ['1138 S Diamond Bar Blvd', 'Diamond Bar, CA 91765']}	Julie's Cafe	1	4.0	475	-117.809818983078	34.0021899336629	Diamond Bar	91765	Coffee & Tea	Bagels	Sandwiches	Los Angeles County	403320.0
jinza-teriyaki-pomona	{'address1': '3425 Pomona Blvd', 'address2': 'Ste 1', 'address3': '', 'city': 'Pomona', 'zip_code': '91768', 'country': 'US', 'state': 'CA', 'display_address': ['3425 Pomona Blvd', 'Ste 1', 'Pomona, CA 91768']}	Jinza Teriyaki	1	4.5	362	-117.81153459999999	34.0468669	Pomona	91768	Japanese	Korean	Hawaiian	Los Angeles County	403200.0
el-buen-gusto-pomona	{'address1': '360 N Park Ave', 'address2': None, 'address3': None, 'city': 'Pomona', 'zip_code': '91768', 'country': 'US', 'state': 'CA', 'display_address': ['360 N Park Ave', 'Pomona, CA 91768']}	El Buen Gusto	1	4.0	114	-117.754475	34.060978999999996	Pomona	91768	Salvadoran			Los Angeles County	408800.0
house-of-pong-seafood-and-grill-claremont	{'address1': '1077 W Foothill Blvd', 'address2': None, 'address3': '', 'city': 'Claremont', 'zip_code': '91711', 'country': 'US', 'state': 'CA', 'display_address': ['1077 W Foothill Blvd', 'Claremont, CA 91711']}	House of Pong Seafood & Grill	2	4.5	171	-117.73613999999999	34.10745	Claremont	91711	Seafood	Asian Fusion	Bars	Los Angeles County	401800.0
hiccups-pho-pomona-2	{'address1': '2266 S Garey Ave', 'address2': None, 'address3': '', 'city': 'Pomona', 'zip_code': '91766', 'country': 'US', 'state': 'CA', 'display_address': ['2266 S Garey Ave', 'Pomona, CA 91766']}	Hiccups Pho		4.5	16	-117.74891869999999	34.03020720000001	Pomona	91766	Vietnamese	Asian Fusion		Los Angeles County	402902.0
la-fuente-restaurant-pomona	{'address1': '987 S Garey Ave', 'address2': None, 'address3': None, 'city': 'Pomona', 'zip_code': '91766', 'country': 'US', 'state': 'CA', 'display_address': ['987 S Garey Ave', 'Pomona, CA 91766']}	La Fuente Restaurant	1	4.0	45	-117.75023	34.05073	Pomona	91766	Mexican			Los Angeles County	408800.0
golden-corral-buffet-and-grill-pomona	{'address1': '2037 Rancho Valley Dr', 'address2': None, 'address3': '', 'city': 'Pomona', 'zip_code': '91766', 'country': 'US', 'state': 'CA', 'display_address': ['2037 Rancho Valley Dr', 'Pomona, CA 91766']}	Golden Corral Buffet & Grill	2	3.0	161	-117.76003100000001	34.034411999999996	Pomona	91766	Buffets	American (Traditional)	Pizza	Los Angeles County	403000.0
monicas-mexican-food-pomona-2	{'address1': '2727 S Reservoir St', 'address2': None, 'address3': '', 'city': 'Pomona', 'zip_code': '91766', 'country': 'US', 'state': 'CA', 'display_address': ['2727 S Reservoir St', 'Pomona, CA 91766']}	Monica's Mexican Food	1	3.5	64	-117.73203999999998	34.02418	Pomona	91766	Mexican			Los Angeles County	402904.0
argo-mediterranean-grille-la-verne	{'address1': '2313 D St', 'address2': None, 'address3': '', 'city': 'La Verne', 'zip_code': '91750', 'country': 'US', 'state': 'CA', 'display_address': ['2313 D St', 'La Verne, CA 91750']}	Argo Mediterranean Grille	2	4.5	180	-117.77037	34.100770000000004	La Verne	91750	Mediterranean	Middle Eastern	Greek	Los Angeles County	401500.0
the-corner-butcher-shop-la-verne	{'address1': '2359 Foothill Blvd', 'address2': '', 'address3': '', 'city': 'La Verne', 'zip_code': '91750', 'country': 'US', 'state': 'CA', 'display_address': ['2359 Foothill Blvd', 'La Verne, CA 91750']}	The Corner Butcher Shop	2	4.5	374	-117.760333202377	34.1125798156079	La Verne	91750	Barbeque	Butcher	Steakhouses	Los Angeles County	401601.0
pho-ha-vietnamese-restaurant-pomona	{'address1': '695 Indian Hill Blvd', 'address2': '', 'address3': '', 'city': 'Pomona', 'zip_code': '91767', 'country': 'US', 'state': 'CA', 'display_address': ['695 Indian Hill Blvd', 'Pomona, CA 91767']}	Pho Ha Vietnamese Restaurant	1	4.0	611	-117.71933490000002	34.0656925	Pomona	91767	Vietnamese			Los Angeles County	402702.0
sanamluang-thai-cuisine-claremont	{'address1': '710 S Indian Hill Blvd', 'address2': '', 'address3': '', 'city': 'Claremont', 'zip_code': '91711', 'country': 'US', 'state': 'CA', 'display_address': ['710 S Indian Hill Blvd', 'Claremont, CA 91711']}	Sanamluang Thai Cuisine	1	4.0	951	-117.71871200000001	34.082874	Claremont	91711	Thai			Los Angeles County	402002.0
tacos-and-fries-pomona	{'address1': '1382 W Holt Ave', 'address2': '', 'address3': None, 'city': 'Pomona', 'zip_code': '91768', 'country': 'US', 'state': 'CA', 'display_address': ['1382 W Holt Ave', 'Pomona, CA 91768']}	Tacos and Fries		4.5	17	-117.77238999999999	34.06159	Pomona	91768	Mexican	Fast Food		Los Angeles County	402402.0
vr-grill-pomona	{'address1': '', 'address2': None, 'address3': '', 'city': 'Pomona', 'zip_code': '91766', 'country': 'US', 'state': 'CA', 'display_address': ['Pomona, CA 91766']}	VR Grill		5.0	1	-117.74793000000001	34.05125	Pomona	91766	Food Stands			Los Angeles County	408800.0
the-cajun-crab-claremont	{'address1': '400 Auto Center Dr', 'address2': '', 'address3': None, 'city': 'Claremont', 'zip_code': '91711', 'country': 'US', 'state': 'CA', 'display_address': ['400 Auto Center Dr', 'Claremont, CA 91711']}	The Cajun Crab	2	3.5	91	-117.719623223153	34.0798937004069	Claremont	91711	Cajun/Creole	Seafood		Los Angeles County	402001.0
the-spot-claremont-2	{'address1': '435 W Foothill Blvd', 'address2': '', 'address3': '', 'city': 'Claremont', 'zip_code': '91711', 'country': 'US', 'state': 'CA', 'display_address': ['435 W Foothill Blvd', 'Claremont, CA 91711']}	The Spot	1	4.0	580	-117.720962876744	34.1071750421331	Claremont	91711	Juice Bars & Smoothies	Sandwiches	Coffee & Tea	Los Angeles County	401800.0
luca-bella-at-the-walker-house-san-dimas	{'address1': '121 N San Dimas Ave', 'address2': '', 'address3': '', 'city': 'San Dimas', 'zip_code': '91773', 'country': 'US', 'state': 'CA', 'display_address': ['121 N San Dimas Ave', 'San Dimas, CA 91773']}	Luca Bella At The Walker House	2	4.5	112	-117.80752	34.10743	San Dimas	91773	American (New)	Italian		Los Angeles County	401311.0
taqueria-la-oaxaquena-pomona-2	{'address1': '825 E Mission Blvd', 'address2': '', 'address3': '', 'city': 'Pomona', 'zip_code': '91766', 'country': 'US', 'state': 'CA', 'display_address': ['825 E Mission Blvd', 'Pomona, CA 91766']}	Taqueria La Oaxaquena de San Juan	1	4.0	21	-117.74067431688299	34.0556972136028	Pomona	91766	Mexican			Los Angeles County	402801.0
mr-ds-diner-pomona	{'address1': '401 E Foothill Blvd', 'address2': None, 'address3': '', 'city': 'Pomona', 'zip_code': '91767', 'country': 'US', 'state': 'CA', 'display_address': ['401 E Foothill Blvd', 'Pomona, CA 91767']}	Mr. D's Diner	2	4.0	103	-117.741600036621	34.1075286865234	Pomona	91767	American (Traditional)	Breakfast & Brunch	Diners	Los Angeles County	401701.0
42nd-street-bagel-cafe-claremont	{'address1': '225 Yale Ave', 'address2': '', 'address3': '', 'city': 'Claremont', 'zip_code': '91711', 'country': 'US', 'state': 'CA', 'display_address': ['225 Yale Ave', 'Claremont, CA 91711']}	42nd Street Bagel Cafe	1	4.0	209	-117.71829	34.0962	Claremont	91711	Bagels	Breakfast & Brunch	Sandwiches	Los Angeles County	401902.0
elviras-grill-claremont-2	{'address1': '415 W Foothill Blvd', 'address2': 'Ste 100', 'address3': None, 'city': 'Claremont', 'zip_code': '91711', 'country': 'US', 'state': 'CA', 'display_address': ['415 W Foothill Blvd', 'Ste 100', 'Claremont, CA 91711']}	Elvira's Grill	2	4.0	192	-117.72105	34.108129999999996	Claremont	91711	Mexican			Los Angeles County	401800.0
le-pain-quotidien-claremont-2	{'address1': '175 N Indian Hill Blvd', 'address2': '', 'address3': '', 'city': 'Claremont', 'zip_code': '91711', 'country': 'US', 'state': 'CA', 'display_address': ['175 N Indian Hill Blvd', 'Claremont, CA 91711']}	Le Pain Quotidien	2	3.5	434	-117.719852785896	34.0953913777878	Claremont	91711	Bakeries	Breakfast & Brunch	Coffee & Tea	Los Angeles County	401902.0
el-cabrito-pomona	{'address1': '2055 S Reservoir St', 'address2': 'Ste F', 'address3': '', 'city': 'Pomona', 'zip_code': '91766', 'country': 'US', 'state': 'CA', 'display_address': ['2055 S Reservoir St', 'Ste F', 'Pomona, CA 91766']}	El Cabrito	2	4.0	26	-117.732177734375	34.0345458984375	Pomona	91766	Mexican			Los Angeles County	402903.0
la-michoacana-kings-pomona-2	{'address1': '1515 E Holt Ave', 'address2': None, 'address3': '', 'city': 'Pomona', 'zip_code': '91767', 'country': 'US', 'state': 'CA', 'display_address': ['1515 E Holt Ave', 'Pomona, CA 91767']}	La Michoacana King's	2	4.5	7	-117.7204949	34.0633249	Pomona	91767	Ice Cream & Frozen Yogurt	Juice Bars & Smoothies	Sandwiches	Los Angeles County	402702.0
fourth-street-mill-la-verne	{'address1': '2124 Bonita Ave', 'address2': '', 'address3': '', 'city': 'La Verne', 'zip_code': '91750', 'country': 'US', 'state': 'CA', 'display_address': ['2124 Bonita Ave', 'La Verne, CA 91750']}	Fourth Street Mill	2	4.0	177	-117.769422064418	34.1012330199834	La Verne	91750	Wine Bars	Gastropubs		Los Angeles County	401500.0
norms-restaurant-claremont-2	{'address1': '807 S Indian Hill Ave', 'address2': '', 'address3': '', 'city': 'Claremont', 'zip_code': '91711', 'country': 'US', 'state': 'CA', 'display_address': ['807 S Indian Hill Ave', 'Claremont, CA 91711']}	NORMS Restaurant	1	3.0	620	-117.7202	34.081069899999996	Claremont	91711	Diners	American (Traditional)	Breakfast & Brunch	Los Angeles County	402001.0
yume-house-pho-pomona	{'address1': '200 E 1st St', 'address2': '', 'address3': '', 'city': 'Pomona', 'zip_code': '91766', 'country': 'US', 'state': 'CA', 'display_address': ['200 E 1st St', 'Pomona, CA 91766']}	Yume House Pho	1	4.0	57	-117.749258537148	34.0586172103195	Pomona	91766	Vietnamese			Los Angeles County	408800.0
hi-family-claremont-16	{'address1': '944 W Foothill Blvd', 'address2': None, 'address3': '', 'city': 'Claremont', 'zip_code': '91711', 'country': 'US', 'state': 'CA', 'display_address': ['944 W Foothill Blvd', 'Claremont, CA 91711']}	Hi Family	2	4.0	193	-117.73318322840599	34.106272264829	Claremont	91711	Chinese	Soup		Los Angeles County	401902.0
tutti-mangia-italian-grill-claremont-3	{'address1': '102 Harvard Ave', 'address2': '', 'address3': '', 'city': 'Claremont', 'zip_code': '91711', 'country': 'US', 'state': 'CA', 'display_address': ['102 Harvard Ave', 'Claremont, CA 91711']}	Tutti Mangia Italian Grill	3	4.0	347	-117.71611000000001	34.09486	Claremont	91711	Italian	Seafood	Wine Bars	Los Angeles County	401902.0
mexico-lindo-pomona	{'address1': '1060 S Garey Ave', 'address2': '', 'address3': '', 'city': 'Pomona', 'zip_code': '91766', 'country': 'US', 'state': 'CA', 'display_address': ['1060 S Garey Ave', 'Pomona, CA 91766']}	Mexico Lindo	1	4.0	206	-117.74951999999999	34.050109899999995	Pomona	91766	Mexican	Seafood		Los Angeles County	402803.0
green-room-pomona	{'address1': '150 W 3rd St', 'address2': None, 'address3': '', 'city': 'Pomona', 'zip_code': '91766', 'country': 'US', 'state': 'CA', 'display_address': ['150 W 3rd St', 'Pomona, CA 91766']}	Green Room	2	4.0	39	-117.7506866	34.0567436	Pomona	91766	American (New)	Cocktail Bars		Los Angeles County	408800.0
sugar-rush-cafe-walnut	{'address1': '3900 Valley Blvd', 'address2': 'Ste A', 'address3': '', 'city': 'Walnut', 'zip_code': '91789', 'country': 'US', 'state': 'CA', 'display_address': ['3900 Valley Blvd', 'Ste A', 'Walnut, CA 91789']}	Sugar Rush Cafe	1	3.5	797	-117.820527729452	34.0401610088164	Walnut	91789	Breakfast & Brunch	Coffee & Tea	American (Traditional)	Los Angeles County	403200.0
macho-pollo-pomona	{'address1': '1245 E Holt Ave', 'address2': '', 'address3': '', 'city': 'Pomona', 'zip_code': '91767', 'country': 'US', 'state': 'CA', 'display_address': ['1245 E Holt Ave', 'Pomona, CA 91767']}	Macho Pollo	1	4.5	38	-117.72549438476601	34.063404083252	Pomona	91767	Mexican			Los Angeles County	402702.0
luizon-mariscos-y-sushi-pomona	{'address1': '612 Indian Hill Blvd', 'address2': None, 'address3': '', 'city': 'Pomona', 'zip_code': '91767', 'country': 'US', 'state': 'CA', 'display_address': ['612 Indian Hill Blvd', 'Pomona, CA 91767']}	Luizon Mariscos y Sushi	2	3.0	47	-117.719145566225	34.0646767616272	Pomona	91767	Seafood	Breakfast & Brunch	Cafes	Los Angeles County	402702.0
jalisco-mexican-food-pomona-2	{'address1': '2256 S Garey Ave', 'address2': None, 'address3': None, 'city': 'Pomona', 'zip_code': '91766', 'country': 'US', 'state': 'CA', 'display_address': ['2256 S Garey Ave', 'Pomona, CA 91766']}	Jalisco Mexican Food	1	4.0	24	-117.7489275	34.0303774	Pomona	91766	Mexican			Los Angeles County	402902.0
manila-bistro-pomona	{'address1': '2455 N Garey Ave', 'address2': None, 'address3': None, 'city': 'Pomona', 'zip_code': '91767', 'country': 'US', 'state': 'CA', 'display_address': ['2455 N Garey Ave', 'Pomona, CA 91767']}	Manila Bistro	1	4.5	25	-117.74929494928699	34.0909522194777	Pomona	91767	Filipino	Fast Food		Los Angeles County	402200.0
the-grill-house-la-verne	{'address1': '1204 Foothill Blvd', 'address2': None, 'address3': '', 'city': 'La Verne', 'zip_code': '91750', 'country': 'US', 'state': 'CA', 'display_address': ['1204 Foothill Blvd', 'La Verne, CA 91750']}	The Grill House	2	4.0	350	-117.78026000000001	34.117979999999996	La Verne	91750	Mediterranean	American (New)	Lounges	Los Angeles County	401603.0
spooners-la-verne-2	{'address1': '2325 D St', 'address2': '', 'address3': '', 'city': 'La Verne', 'zip_code': '91750', 'country': 'US', 'state': 'CA', 'display_address': ['2325 D St', 'La Verne, CA 91750']}	Spooner's	2	4.0	110	-117.770602322754	34.1012012162079	La Verne	91750	Korean	Ramen	Chicken Wings	Los Angeles County	401500.0
the-restaurant-at-kellogg-ranch-pomona	{'address1': '3801 W Temple Ave', 'address2': 'Bldg 79', 'address3': 'The Collins College of Hospitality Management', 'city': 'Pomona', 'zip_code': '91768', 'country': 'US', 'state': 'CA', 'display_address': ['3801 W Temple Ave', 'Bldg 79', 'The Collins College of Hospitality Management', 'Pomona, CA 91768']}	The Restaurant at Kellogg Ranch	2	4.5	95	-117.82505879	34.0557545051104	Pomona	91768	American (New)			Los Angeles County	402404.0
curry-up-pomona	{'address1': '3560 W Temple Ave', 'address2': 'Ste C', 'address3': '', 'city': 'Pomona', 'zip_code': '91768', 'country': 'US', 'state': 'CA', 'display_address': ['3560 W Temple Ave', 'Ste C', 'Pomona, CA 91768']}	Curry Up	1	4.0	326	-117.81076812744101	34.0483818054199	Pomona	91768	Indian	Halal		Los Angeles County	402402.0
robertas-village-inn-la-verne	{'address1': '2326 D St', 'address2': '', 'address3': '', 'city': 'La Verne', 'zip_code': '91750', 'country': 'US', 'state': 'CA', 'display_address': ['2326 D St', 'La Verne, CA 91750']}	Roberta's Village Inn	1	4.0	159	-117.7699675	34.1009399	La Verne	91750	Breakfast & Brunch	American (Traditional)		Los Angeles County	401500.0
mariscos-isla-del-pacifico-pomona	{'address1': '945 East Holt', 'address2': None, 'address3': '', 'city': 'Pomona', 'zip_code': '91767', 'country': 'US', 'state': 'CA', 'display_address': ['945 East Holt', 'Pomona, CA 91767']}	Mariscos Isla Del Pacifico	2	4.5	23	-117.73213999999999	34.063140000000004	Pomona	91767	Seafood	Mexican		Los Angeles County	402702.0
rachels-corner-grill-and-deli-diamond-bar	{'address1': '1241 Grand Ave', 'address2': 'Ste D', 'address3': None, 'city': 'Diamond Bar', 'zip_code': '91765', 'country': 'US', 'state': 'CA', 'display_address': ['1241 Grand Ave', 'Ste D', 'Diamond Bar, CA 91765']}	Rachel's Corner Grill & Deli	1	4.0	16	-117.80976000000001	33.99982	Diamond Bar	91765	Delis	Filipino		Los Angeles County	403324.0
seasons-cafe-diamond-bar	{'address1': '23415 Golden Springs Dr', 'address2': '', 'address3': '', 'city': 'Diamond Bar', 'zip_code': '91765', 'country': 'US', 'state': 'CA', 'display_address': ['23415 Golden Springs Dr', 'Diamond Bar, CA 91765']}	Seasons Cafe	1	4.0	109	-117.8105972	34.0184992	Diamond Bar	91765	Chinese			Los Angeles County	403319.0
aj-chinese-food-pomona	{'address1': '2001 S Garey', 'address2': '', 'address3': 'I-5', 'city': 'Pomona', 'zip_code': '91766', 'country': 'US', 'state': 'CA', 'display_address': ['2001 S Garey', 'I-5', 'Pomona, CA 91766']}	AJ Chinese Food	1	5.0	2	-117.750431575892	34.0352773557776	Pomona	91766	Restaurants	Coffee & Tea	Bubble Tea	Los Angeles County	403000.0
kaya-asian-cuisine-pomona	{'address1': '1640 W Mission Blvd', 'address2': '', 'address3': '', 'city': 'Pomona', 'zip_code': '91766', 'country': 'US', 'state': 'CA', 'display_address': ['1640 W Mission Blvd', 'Pomona, CA 91766']}	Kaya Asian Cuisine	2	4.5	227	-117.77554429999999	34.053957700000005	Pomona	91766	Sushi Bars	Chinese	Salad	Los Angeles County	402402.0
walters-restaurant-claremont-3	{'address1': '310 Yale Ave', 'address2': '', 'address3': '', 'city': 'Claremont', 'zip_code': '91711', 'country': 'US', 'state': 'CA', 'display_address': ['310 Yale Ave', 'Claremont, CA 91711']}	Walter's Restaurant	2	3.0	562	-117.71776938010599	34.0969203010086	Claremont	91711	Breakfast & Brunch	American (New)		Los Angeles County	401902.0
packing-house-wine-merchants-claremont-2	{'address1': '540 W 1st St', 'address2': '', 'address3': '', 'city': 'Claremont', 'zip_code': '91711', 'country': 'US', 'state': 'CA', 'display_address': ['540 W 1st St', 'Claremont, CA 91711']}	Packing House Wine Merchants	2	4.0	157	-117.721376140475	34.094447048496	Claremont	91711	Wine Bars	American (Traditional)		Los Angeles County	401902.0
pizza-pirates-pomona	{'address1': '2092 S Garey Ave', 'address2': '', 'address3': '', 'city': 'Pomona', 'zip_code': '91766', 'country': 'US', 'state': 'CA', 'display_address': ['2092 S Garey Ave', 'Pomona, CA 91766']}	Pizza Pirates	1	4.0	158	-117.7478	34.0337	Pomona	91766	Pizza			Los Angeles County	402902.0
tacos-jalisco-pomona	{'address1': '595 W Mission Blvd', 'address2': '', 'address3': '', 'city': 'Pomona', 'zip_code': '91766', 'country': 'US', 'state': 'CA', 'display_address': ['595 W Mission Blvd', 'Pomona, CA 91766']}	Taco's Jalisco	1	3.5	162	-117.75527949999999	34.055248299999995	Pomona	91766	Mexican			Los Angeles County	408800.0
pescaderia-mr-fish-pomona	{'address1': '3109 N Garey Ave', 'address2': '', 'address3': '', 'city': 'Pomona', 'zip_code': '91767', 'country': 'US', 'state': 'CA', 'display_address': ['3109 N Garey Ave', 'Pomona, CA 91767']}	Pescaderia Mr. Fish	1	4.0	169	-117.74872490000001	34.1038489	Pomona	91767	Seafood	Seafood Markets	Mexican	Los Angeles County	401703.0
space-taco-house-tuesdays-pomona	{'address1': '333 S Garey Ave', 'address2': None, 'address3': '', 'city': 'Pomona', 'zip_code': '91766', 'country': 'US', 'state': 'CA', 'display_address': ['333 S Garey Ave', 'Pomona, CA 91766']}	Space Taco House Tuesday's		5.0	2	-117.75026509999998	34.056246	Pomona	91766	Mexican	Pubs		Los Angeles County	408800.0
union-on-yale-claremont	{'address1': '232 Yale Ave', 'address2': '', 'address3': '', 'city': 'Claremont', 'zip_code': '91711', 'country': 'US', 'state': 'CA', 'display_address': ['232 Yale Ave', 'Claremont, CA 91711']}	Union On Yale	2	4.0	620	-117.71754299999999	34.09633400000001	Claremont	91711	American (New)	Pizza	Cocktail Bars	Los Angeles County	401902.0
aljibani-halal-market-diamond-bar	{'address1': '23385 Golden Springs Dr', 'address2': '', 'address3': '', 'city': 'Diamond Bar', 'zip_code': '91765', 'country': 'US', 'state': 'CA', 'display_address': ['23385 Golden Springs Dr', 'Diamond Bar, CA 91765']}	Aljibani Halal Market	1	4.5	101	-117.810283256561	34.017956118349105	Diamond Bar	91765	Middle Eastern	Grocery	Meat Shops	Los Angeles County	403319.0
el-merendero-pomona	{'address1': '242 S Garey Ave', 'address2': '', 'address3': '', 'city': 'Pomona', 'zip_code': '91766', 'country': 'US', 'state': 'CA', 'display_address': ['242 S Garey Ave', 'Pomona, CA 91766']}	El Merendero	1	3.5	175	-117.74999220000001	34.0574729	Pomona	91766	Mexican			Los Angeles County	408800.0
cafe-las-pupusas-dining-and-brews-san-dimas	{'address1': '380 S San Dimas Ave', 'address2': 'Ste 102', 'address3': '', 'city': 'San Dimas', 'zip_code': '91773', 'country': 'US', 'state': 'CA', 'display_address': ['380 S San Dimas Ave', 'Ste 102', 'San Dimas, CA 91773']}	Cafe Las Pupusas Dining & Brews	1	4.0	146	-117.80665	34.10387	San Dimas	91773	Salvadoran	Mexican	American (Traditional)	Los Angeles County	400304.0
ono-hawaiian-bbq-pomona	{'address1': '785 Rio Rancho Rd', 'address2': 'Ste 320', 'address3': '', 'city': 'Pomona', 'zip_code': '91766', 'country': 'US', 'state': 'CA', 'display_address': ['785 Rio Rancho Rd', 'Ste 320', 'Pomona, CA 91766']}	Ono Hawaiian BBQ	1	3.5	70	-117.757108704477	34.033957218467606	Pomona	91766	Barbeque	Hawaiian		Los Angeles County	403000.0
kwons-restaurant-pomona	{'address1': '1625 W Holt Ave', 'address2': '', 'address3': '', 'city': 'Pomona', 'zip_code': '91768', 'country': 'US', 'state': 'CA', 'display_address': ['1625 W Holt Ave', 'Pomona, CA 91768']}	Kwon's Restaurant	1	4.0	209	-117.777572631836	34.0620994567871	Pomona	91768	Chinese			Los Angeles County	402406.0
noodlemii-diamond-bar	{'address1': '1345 S Diamond Bar Blvd', 'address2': 'Ste J', 'address3': None, 'city': 'Diamond Bar', 'zip_code': '91765', 'country': 'US', 'state': 'CA', 'display_address': ['1345 S Diamond Bar Blvd', 'Ste J', 'Diamond Bar, CA 91765']}	NOODLEMii	1	4.0	106	-117.81351000000001	33.99781	Diamond Bar	91765	Thai	Chinese	Noodles	Los Angeles County	403323.0
aruffos-italian-cuisine-claremont	{'address1': '126 Yale Ave', 'address2': '', 'address3': '', 'city': 'Claremont', 'zip_code': '91711', 'country': 'US', 'state': 'CA', 'display_address': ['126 Yale Ave', 'Claremont, CA 91711']}	Aruffo's Italian Cuisine	2	4.0	513	-117.71774509999999	34.0951351	Claremont	91711	Italian	Steakhouses		Los Angeles County	401902.0
pho-super-bowl-diamond-bar	{'address1': '329 S Diamond Bar Blvd', 'address2': '', 'address3': '', 'city': 'Diamond Bar', 'zip_code': '91765', 'country': 'US', 'state': 'CA', 'display_address': ['329 S Diamond Bar Blvd', 'Diamond Bar, CA 91765']}	Pho Super Bowl	1	4.0	604	-117.80944299999999	34.019796299999996	Diamond Bar	91765	Vietnamese			Los Angeles County	403319.0
sacas-mediterranean-cuisine-claremont	{'address1': '248 W 2nd St', 'address2': '', 'address3': '', 'city': 'Claremont', 'zip_code': '91711', 'country': 'US', 'state': 'CA', 'display_address': ['248 W 2nd St', 'Claremont, CA 91711']}	Saca's Mediterranean Cuisine	1	4.0	347	-117.717036788343	34.0955497238822	Claremont	91711	Greek	Mediterranean	Sandwiches	Los Angeles County	401902.0
juanitas-drive-in-pomona	{'address1': '1735 Indian Hill Blvd', 'address2': '', 'address3': '', 'city': 'Pomona', 'zip_code': '91767', 'country': 'US', 'state': 'CA', 'display_address': ['1735 Indian Hill Blvd', 'Pomona, CA 91767']}	Juanita's Drive In	1	4.0	115	-117.71965	34.07645	Pomona	91767	Mexican			Los Angeles County	402703.0
boca-burger-claremont	{'address1': '425 W Foothill Blvd', 'address2': '', 'address3': '', 'city': 'Claremont', 'zip_code': '91711', 'country': 'US', 'state': 'CA', 'display_address': ['425 W Foothill Blvd', 'Claremont, CA 91711']}	Boca Burger	1	4.0	180	-117.7208341	34.10726870000001	Claremont	91711	Burgers	Sandwiches	Breakfast & Brunch	Los Angeles County	401800.0
oke-poke-claremont-claremont-2	{'address1': '405 W Foothill Blvd', 'address2': 'Ste 103', 'address3': None, 'city': 'Claremont', 'zip_code': '91711', 'country': 'US', 'state': 'CA', 'display_address': ['405 W Foothill Blvd', 'Ste 103', 'Claremont, CA 91711']}	Oke Poke Claremont	1	4.0	137	-117.721466126147	34.1074757598358	Claremont	91711	Poke	Hawaiian		Los Angeles County	401800.0
taqueria-el-sol-pomona	{'address1': '2129 N Towne Ave', 'address2': '', 'address3': '', 'city': 'Pomona', 'zip_code': '91767', 'country': 'US', 'state': 'CA', 'display_address': ['2129 N Towne Ave', 'Pomona, CA 91767']}	Taqueria El Sol	1	4.0	65	-117.740605	34.0813466	Pomona	91767	Mexican			Los Angeles County	402102.0
the-press-restaurant-claremont	{'address1': '129 Harvard Ave', 'address2': '', 'address3': '', 'city': 'Claremont', 'zip_code': '91711', 'country': 'US', 'state': 'CA', 'display_address': ['129 Harvard Ave', 'Claremont, CA 91711']}	The Press Restaurant	2	3.5	383	-117.7167	34.09515	Claremont	91711	American (Traditional)			Los Angeles County	401902.0
candlelight-pavilion-dinner-theater-claremont	{'address1': '455 W Foothill Blvd', 'address2': '', 'address3': '', 'city': 'Claremont', 'zip_code': '91711', 'country': 'US', 'state': 'CA', 'display_address': ['455 W Foothill Blvd', 'Claremont, CA 91711']}	Candlelight Pavilion Dinner Theater	3	4.5	141	-117.72124109999999	34.1072464	Claremont	91711	Dinner Theater			Los Angeles County	401800.0
simply-sweet-cafe-san-dimas	{'address1': '425 W Allen Ave', 'address2': 'Ste 103', 'address3': '', 'city': 'San Dimas', 'zip_code': '91773', 'country': 'US', 'state': 'CA', 'display_address': ['425 W Allen Ave', 'Ste 103', 'San Dimas, CA 91773']}	Simply Sweet Cafe	1	4.0	79	-117.8143929	34.117674900000004	San Dimas	91773	Cafes	Breakfast & Brunch	Sandwiches	Los Angeles County	401311.0
saigon-noodle-house-diamond-bar	{'address1': '1136 S Diamond Bar Blvd', 'address2': '', 'address3': '', 'city': 'Diamond Bar', 'zip_code': '91765', 'country': 'US', 'state': 'CA', 'display_address': ['1136 S Diamond Bar Blvd', 'Diamond Bar, CA 91765']}	Saigon Noodle House	1	4.0	468	-117.80996918678301	34.0023322436059	Diamond Bar	91765	Vietnamese	Noodles		Los Angeles County	403320.0
saigon-village-bistro-pomona	{'address1': '1280 E Holt Ave', 'address2': '', 'address3': '', 'city': 'Pomona', 'zip_code': '91767', 'country': 'US', 'state': 'CA', 'display_address': ['1280 E Holt Ave', 'Pomona, CA 91767']}	Saigon Village Bistro	1	4.0	75	-117.7246	34.06255	Pomona	91767	Vietnamese			Los Angeles County	402702.0
pieology-pizzeria-pomona	{'address1': '2051 Rancho Valley Dr', 'address2': 'Ste 200', 'address3': '', 'city': 'Pomona', 'zip_code': '91766', 'country': 'US', 'state': 'CA', 'display_address': ['2051 Rancho Valley Dr', 'Ste 200', 'Pomona, CA 91766']}	Pieology Pizzeria	1	4.0	75	-117.75931000000001	34.03525	Pomona	91766	Pizza			Los Angeles County	403000.0
up-n-smoke-tacos-and-sauces-san-dimas	{'address1': '535 W Allen Ave', 'address2': 'Unite  22', 'address3': '', 'city': 'San Dimas', 'zip_code': '91773', 'country': 'US', 'state': 'CA', 'display_address': ['535 W Allen Ave', 'Unite  22', 'San Dimas, CA 91773']}	Up N Smoke Tacos And Sauces	2	5.0	19	-117.819156758487	34.1175465900673	San Dimas	91773	Tacos	Food Stands		Los Angeles County	401311.0
farmer-boys-pomona-2	{'address1': '625 Rio Rancho Rd', 'address2': None, 'address3': None, 'city': 'Pomona', 'zip_code': '91766', 'country': 'US', 'state': 'CA', 'display_address': ['625 Rio Rancho Rd', 'Pomona, CA 91766']}	Farmer Boys	1	2.5	107	-117.7549873	34.033936600000004	Pomona	91766	Breakfast & Brunch			Los Angeles County	403000.0
toms-famous-family-restaurant-18-pomona	{'address1': '1190 Philadelphia St', 'address2': '', 'address3': '', 'city': 'Pomona', 'zip_code': '91766', 'country': 'US', 'state': 'CA', 'display_address': ['1190 Philadelphia St', 'Pomona, CA 91766']}	Tom's Famous Family Restaurant 18	1	2.5	111	-117.73215990000001	34.0335751	Pomona	91766	Burgers			Los Angeles County	402904.0
louisiana-fried-chicken-and-golden-wok-pomona	{'address1': '1725 N Garey Ave', 'address2': '', 'address3': '', 'city': 'Pomona', 'zip_code': '91768', 'country': 'US', 'state': 'CA', 'display_address': ['1725 N Garey Ave', 'Pomona, CA 91768']}	Louisiana Fried Chicken & Golden Wok	1	2.5	70	-117.75273120703501	34.0767584675544	Pomona	91768	Soul Food	Chinese		Los Angeles County	402200.0
cocina-los-volcanes-pomona-2	{'address1': '937 W Holt Ave', 'address2': 'Ste B', 'address3': '', 'city': 'Pomona', 'zip_code': '91768', 'country': 'US', 'state': 'CA', 'display_address': ['937 W Holt Ave', 'Ste B', 'Pomona, CA 91768']}	Cocina Los Volcanes		4.5	8	-117.7659	34.062329999999996	Pomona	91768	Mexican			Los Angeles County	402304.0
xi-an-wei-diamond-bar-2	{'address1': '1155 S Diamond Bar Blvd', 'address2': 'Ste L', 'address3': '', 'city': 'Diamond Bar', 'zip_code': '91765', 'country': 'US', 'state': 'CA', 'display_address': ['1155 S Diamond Bar Blvd', 'Ste L', 'Diamond Bar, CA 91765']}	Xi An Wei	1	3.5	65	-117.81145	34.00233	Diamond Bar	91765	Chinese			Los Angeles County	403319.0
ginza-bowl-pomona	{'address1': '1495 W Holt Ave', 'address2': '', 'address3': '', 'city': 'Pomona', 'zip_code': '91768', 'country': 'US', 'state': 'CA', 'display_address': ['1495 W Holt Ave', 'Pomona, CA 91768']}	Ginza Bowl	1	4.0	87	-117.7750439	34.0618845	Pomona	91768	Japanese			Los Angeles County	402304.0
intiraymi-cuisine-diamond-bar	{'address1': '23545 Palomino Dr', 'address2': 'Ste F', 'address3': '', 'city': 'Diamond Bar', 'zip_code': '91765', 'country': 'US', 'state': 'CA', 'display_address': ['23545 Palomino Dr', 'Ste F', 'Diamond Bar, CA 91765']}	Intiraymi Cuisine	2	4.0	142	-117.80959209999999	34.0229939	Diamond Bar	91765	Peruvian			Los Angeles County	403321.0
brass-oven-pizza-pomona	{'address1': '1637 N Garey Ave', 'address2': '', 'address3': None, 'city': 'Pomona', 'zip_code': '91768', 'country': 'US', 'state': 'CA', 'display_address': ['1637 N Garey Ave', 'Pomona, CA 91768']}	Brass Oven Pizza		5.0	7	-117.75253000000001	34.0752	Pomona	91768	Pizza			Los Angeles County	402200.0
subs-cafe-pomona	{'address1': '101 W Mission Blvd', 'address2': 'Ste 107', 'address3': '', 'city': 'Pomona', 'zip_code': '91766', 'country': 'US', 'state': 'CA', 'display_address': ['101 W Mission Blvd', 'Ste 107', 'Pomona, CA 91766']}	Subs Cafe	1	3.5	52	-117.75052	34.05535	Pomona	91766	Cafes			Los Angeles County	408800.0
honolulu-hawaiian-bbq-pomona	{'address1': '68 Rio Rancho Rd', 'address2': 'Ste 106', 'address3': '', 'city': 'Pomona', 'zip_code': '91766', 'country': 'US', 'state': 'CA', 'display_address': ['68 Rio Rancho Rd', 'Ste 106', 'Pomona, CA 91766']}	Honolulu Hawaiian BBQ	1	3.5	122	-117.76055	34.02836	Pomona	91766	Barbeque	Hawaiian	Asian Fusion	Los Angeles County	403318.0
il-mattone-trattoria-italiana-claremont-2	{'address1': '201 N Indian Hill Blvd', 'address2': '', 'address3': '', 'city': 'Claremont', 'zip_code': '91711', 'country': 'US', 'state': 'CA', 'display_address': ['201 N Indian Hill Blvd', 'Claremont, CA 91711']}	Il Mattone Trattoria Italiana	2	4.0	366	-117.71974820000001	34.095753	Claremont	91711	Italian	Pizza		Los Angeles County	401902.0
sabor-mexicano-pomona	{'address1': '180 E 6th St', 'address2': '', 'address3': '', 'city': 'Pomona', 'zip_code': '91766', 'country': 'US', 'state': 'CA', 'display_address': ['180 E 6th St', 'Pomona, CA 91766']}	Sabor Mexicano	1	4.0	21	-117.7492361	34.054053100000004	Pomona	91766	Mexican			Los Angeles County	408800.0
all-star-donuts-pomona-4	{'address1': '2055 S Reservoir St', 'address2': 'Ste B', 'address3': '', 'city': 'Pomona', 'zip_code': '91766', 'country': 'US', 'state': 'CA', 'display_address': ['2055 S Reservoir St', 'Ste B', 'Pomona, CA 91766']}	All Star Donuts		5.0	1	-117.73217	34.03436	Pomona	91766	Donuts	Coffee & Tea	Sandwiches	Los Angeles County	402903.0
chases-la-verne-la-verne	{'address1': '2136 3rd St', 'address2': '', 'address3': '', 'city': 'La Verne', 'zip_code': '91750', 'country': 'US', 'state': 'CA', 'display_address': ['2136 3rd St', 'La Verne, CA 91750']}	Chase's La Verne	2	4.0	275	-117.769481385425	34.1001687387339	La Verne	91750	Bars	American (New)		Los Angeles County	401500.0
pomona-valley-mining-co-pomona	{'address1': '1777 Gillette Rd', 'address2': '', 'address3': '', 'city': 'Pomona', 'zip_code': '91768', 'country': 'US', 'state': 'CA', 'display_address': ['1777 Gillette Rd', 'Pomona, CA 91768']}	Pomona Valley Mining Co	3	3.5	800	-117.77916699999999	34.075142	Pomona	91768	American (New)	Seafood	Steakhouses	Los Angeles County	402200.0
heroes-and-legends-restaurant-claremont	{'address1': '131 Yale Ave', 'address2': '', 'address3': '', 'city': 'Claremont', 'zip_code': '91711', 'country': 'US', 'state': 'CA', 'display_address': ['131 Yale Ave', 'Claremont, CA 91711']}	Heroes & Legends Restaurant	2	3.0	496	-117.718112	34.095354	Claremont	91711	Burgers	Beer Bar		Los Angeles County	401902.0
petiscos-claremont	{'address1': '211 W 1st St', 'address2': '', 'address3': '', 'city': 'Claremont', 'zip_code': '91711', 'country': 'US', 'state': 'CA', 'display_address': ['211 W 1st St', 'Claremont, CA 91711']}	Petiscos	2	3.5	260	-117.716803997755	34.0947857363063	Claremont	91711	Portuguese	Tacos		Los Angeles County	401902.0
encore-teppan-diamond-bar	{'address1': '23525 Palomino Dr', 'address2': None, 'address3': '', 'city': 'Diamond Bar', 'zip_code': '91765', 'country': 'US', 'state': 'CA', 'display_address': ['23525 Palomino Dr', 'Diamond Bar, CA 91765']}	Encore Teppan	2	3.5	291	-117.80983	34.023309999999995	Diamond Bar	91765	Teppanyaki	Sushi Bars	Steakhouses	Los Angeles County	403321.0
taqueria-santa-cruz-pomona	{'address1': '1285 S Garey Ave', 'address2': 'Ste E', 'address3': '', 'city': 'Pomona', 'zip_code': '91766', 'country': 'US', 'state': 'CA', 'display_address': ['1285 S Garey Ave', 'Ste E', 'Pomona, CA 91766']}	Taqueria Santa Cruz	1	4.5	20	-117.75015258789101	34.0482406616211	Pomona	91766	Mexican			Los Angeles County	402502.0
bravo-burgers-pomona	{'address1': '1215 N White Ave', 'address2': '', 'address3': '', 'city': 'Pomona', 'zip_code': '91768', 'country': 'US', 'state': 'CA', 'display_address': ['1215 N White Ave', 'Pomona, CA 91768']}	Bravo Burgers	1	3.5	162	-117.75967	34.069759999999995	Pomona	91768	Burgers			Los Angeles County	402303.0
brb-diamond-bar-6	{'address1': '1381 S Diamond Bar Blvd', 'address2': None, 'address3': '', 'city': 'Diamond Bar', 'zip_code': '91765', 'country': 'US', 'state': 'CA', 'display_address': ['1381 S Diamond Bar Blvd', 'Diamond Bar, CA 91765']}	BRB	2	4.0	63	-117.81364640000001	33.997057700000006	Diamond Bar	91765	Korean	Asian Fusion	Sushi Bars	Los Angeles County	403323.0
k-and-f-burger-pomona	{'address1': '560 E Holt Ave', 'address2': '', 'address3': '', 'city': 'Pomona', 'zip_code': '91767', 'country': 'US', 'state': 'CA', 'display_address': ['560 E Holt Ave', 'Pomona, CA 91767']}	K & F Burger	1	4.0	25	-117.739715576172	34.062313079834	Pomona	91767	Burgers	Sandwiches		Los Angeles County	402600.0
zaky-mediterranean-grill-claremont	{'address1': '806 S Indian Hill Blvd', 'address2': '', 'address3': '', 'city': 'Claremont', 'zip_code': '91711', 'country': 'US', 'state': 'CA', 'display_address': ['806 S Indian Hill Blvd', 'Claremont, CA 91711']}	Zaky Mediterranean Grill	2	3.5	109	-117.71878000000001	34.08108	Claremont	91711	Mediterranean			Los Angeles County	402002.0
los-jarritos-restaurants-pomona-2	{'address1': '3191 N Garey Ave', 'address2': '', 'address3': '', 'city': 'Pomona', 'zip_code': '91767', 'country': 'US', 'state': 'CA', 'display_address': ['3191 N Garey Ave', 'Pomona, CA 91767']}	Los Jarritos Restaurants	1	4.0	459	-117.749313071629	34.1057296335185	Pomona	91767	Mexican			Los Angeles County	401703.0
pizza-beer-and-wings-pomona	{'address1': '296 W 2nd St', 'address2': None, 'address3': '', 'city': 'Pomona', 'zip_code': '91766', 'country': 'US', 'state': 'CA', 'display_address': ['296 W 2nd St', 'Pomona, CA 91766']}	Pizza Beer and Wings	2	3.5	290	-117.752015999387	34.0576232603976	Pomona	91766	Pizza	Chicken Wings	Sports Bars	Los Angeles County	408800.0
toms-famous-family-restaurant-pomona-2	{'address1': '282 E Mission Blvd', 'address2': '', 'address3': '', 'city': 'Pomona', 'zip_code': '91766', 'country': 'US', 'state': 'CA', 'display_address': ['282 E Mission Blvd', 'Pomona, CA 91766']}	Tom's Famous Family Restaurant	1	3.5	88	-117.7480659	34.0550251	Pomona	91766	Burgers	Mexican	Breakfast & Brunch	Los Angeles County	408800.0
cafe-x2o-la-verne-la-verne	{'address1': '2445 Foothill Blvd', 'address2': 'Ste A', 'address3': '', 'city': 'La Verne', 'zip_code': '91750', 'country': 'US', 'state': 'CA', 'display_address': ['2445 Foothill Blvd', 'Ste A', 'La Verne, CA 91750']}	Cafe X2O, La Verne	2	4.0	443	-117.758529663086	34.1115493774414	La Verne	91750	Mediterranean	Hookah Bars	Wine Bars	Los Angeles County	401601.0
mimi-5-bobee-diamond-bar	{'address1': '333 S Diamond Bar Blvd', 'address2': '', 'address3': '', 'city': 'Diamond Bar', 'zip_code': '91765', 'country': 'US', 'state': 'CA', 'display_address': ['333 S Diamond Bar Blvd', 'Diamond Bar, CA 91765']}	Mimi 5 Bobee	1	3.5	231	-117.80948869940399	34.019203439077	Diamond Bar	91765	Taiwanese			Los Angeles County	403319.0
lordsburg-taphouse-and-grill-la-verne	{'address1': '2335 D St', 'address2': None, 'address3': '', 'city': 'La Verne', 'zip_code': '91750', 'country': 'US', 'state': 'CA', 'display_address': ['2335 D St', 'La Verne, CA 91750']}	Lordsburg Taphouse and Grill	2	3.5	255	-117.770076	34.1012481	La Verne	91750	American (Traditional)	Salad	Barbeque	Los Angeles County	401500.0
innovation-brew-works-pomona	{'address1': '3650 W Temple Ave', 'address2': None, 'address3': '', 'city': 'Pomona', 'zip_code': '91768', 'country': 'US', 'state': 'CA', 'display_address': ['3650 W Temple Ave', 'Pomona, CA 91768']}	Innovation Brew Works	2	4.0	153	-117.81358346343	34.0488778799772	Pomona	91768	Breweries	Pizza		Los Angeles County	402403.0
lilys-tacos-la-verne	{'address1': '2701-2777 Foothill Blvd', 'address2': '', 'address3': '', 'city': 'La Verne', 'zip_code': '91750', 'country': 'US', 'state': 'CA', 'display_address': ['2701-2777 Foothill Blvd', 'La Verne, CA 91750']}	Lily's Tacos	1	3.5	88	-117.753887213767	34.1098197628616	La Verne	91750	Mexican	Breakfast & Brunch		Los Angeles County	401601.0
feeling-groovy-wellness-and-cafe-claremont-3	{'address1': '863 W Foothill Blvd', 'address2': '', 'address3': None, 'city': 'Claremont', 'zip_code': '91711', 'country': 'US', 'state': 'CA', 'display_address': ['863 W Foothill Blvd', 'Claremont, CA 91711']}	Feeling Groovy Wellness & Cafe	2	4.0	44	-117.732173603606	34.1080624778691	Claremont	91711	Yoga	Cafes	Massage	Los Angeles County	401800.0
wolfes-market-claremont-4	{'address1': '160 W Foothill Blvd', 'address2': None, 'address3': '', 'city': 'Claremont', 'zip_code': '91711', 'country': 'US', 'state': 'CA', 'display_address': ['160 W Foothill Blvd', 'Claremont, CA 91711']}	Wolfe's Market	2	4.0	101	-117.71633999999999	34.106770000000004	Claremont	91711	Specialty Food	Delis	Desserts	Los Angeles County	401902.0
mix-bowl-cafe-pomona	{'address1': '1520 Indian Hill Blvd', 'address2': '', 'address3': '', 'city': 'Pomona', 'zip_code': '91767', 'country': 'US', 'state': 'CA', 'display_address': ['1520 Indian Hill Blvd', 'Pomona, CA 91767']}	Mix Bowl Cafe	1	3.0	818	-117.71898	34.073815	Pomona	91767	Thai	Seafood		Los Angeles County	402706.0
el-patron-ii-authentic-mexican-food-la-verne	{'address1': '1524 Foothill Blvd', 'address2': '', 'address3': '', 'city': 'La Verne', 'zip_code': '91750', 'country': 'US', 'state': 'CA', 'display_address': ['1524 Foothill Blvd', 'La Verne, CA 91750']}	El Patron II Authentic Mexican Food	1	4.0	117	-117.7739324	34.116038700000004	La Verne	91750	Mexican			Los Angeles County	401603.0
pasta-cucina-rustica-la-verne	{'address1': '2086 Foothill Blvd', 'address2': 'Ste D', 'address3': '', 'city': 'La Verne', 'zip_code': '91750', 'country': 'US', 'state': 'CA', 'display_address': ['2086 Foothill Blvd', 'Ste D', 'La Verne, CA 91750']}	Pasta Cucina Rustica	2	4.0	267	-117.76607620000001	34.1134219	La Verne	91750	Italian			Los Angeles County	401602.0
dinos-chicken-and-burgers-pomona-2	{'address1': '770 E Arrow Hwy', 'address2': '', 'address3': '', 'city': 'Pomona', 'zip_code': '91767', 'country': 'US', 'state': 'CA', 'display_address': ['770 E Arrow Hwy', 'Pomona, CA 91767']}	Dino's Chicken and Burgers	1	3.5	169	-117.7378199	34.0898351	Pomona	91767	Burgers			Los Angeles County	402102.0
samos-pomona	{'address1': '1701 S Garey Ave', 'address2': '', 'address3': '', 'city': 'Pomona', 'zip_code': '91766', 'country': 'US', 'state': 'CA', 'display_address': ['1701 S Garey Ave', 'Pomona, CA 91766']}	Samos	1	3.5	43	-117.75007	34.04034	Pomona	91766	Burgers			Los Angeles County	403000.0
sonic-drive-in-pomona-5	{'address1': '40 Rio Rancho Road', 'address2': '', 'address3': '', 'city': 'Pomona', 'zip_code': '91766', 'country': 'US', 'state': 'CA', 'display_address': ['40 Rio Rancho Road', 'Pomona, CA 91766']}	Sonic Drive-In	1	3.0	175	-117.75939299999999	34.030251	Pomona	91766	Fast Food	Ice Cream & Frozen Yogurt	Burgers	Los Angeles County	403318.0
jns-original-bbq-pit-house-pomona	{'address1': '1180 N White Ave', 'address2': '', 'address3': '', 'city': 'Pomona', 'zip_code': '91768', 'country': 'US', 'state': 'CA', 'display_address': ['1180 N White Ave', 'Pomona, CA 91768']}	JN's Original BBQ Pit House	2	3.0	113	-117.75906622409799	34.0692226229384	Pomona	91768	Barbeque			Los Angeles County	402303.0
the-bowl-la-verne	{'address1': '2087 Foothill Blvd', 'address2': None, 'address3': '', 'city': 'La Verne', 'zip_code': '91750', 'country': 'US', 'state': 'CA', 'display_address': ['2087 Foothill Blvd', 'La Verne, CA 91750']}	The Bowl	1	4.5	268	-117.7654713	34.1136644	La Verne	91750	Vegan	Juice Bars & Smoothies	Gluten-Free	Los Angeles County	401601.0
cocineros-mexican-food-pomona-2	{'address1': '1526 W Mission Blvd', 'address2': '', 'address3': '', 'city': 'Pomona', 'zip_code': '91766', 'country': 'US', 'state': 'CA', 'display_address': ['1526 W Mission Blvd', 'Pomona, CA 91766']}	Cocineros Mexican Food	1	4.0	22	-117.77502791055201	34.0538134035854	Pomona	91766	Mexican			Los Angeles County	402402.0
emilianos-restaurant-pomona	{'address1': '896 E Mission Blvd', 'address2': '', 'address3': '', 'city': 'Pomona', 'zip_code': '91766', 'country': 'US', 'state': 'CA', 'display_address': ['896 E Mission Blvd', 'Pomona, CA 91766']}	Emilianos Restaurant	2	3.5	51	-117.73945	34.05506	Pomona	91766	Mexican	American (New)		Los Angeles County	402801.0
badminton-cross-court-cafe-pomona-2	{'address1': '3410 Pomona Blvd', 'address2': '', 'address3': '', 'city': 'Pomona', 'zip_code': '91768', 'country': 'US', 'state': 'CA', 'display_address': ['3410 Pomona Blvd', 'Pomona, CA 91768']}	Badminton Cross Court Cafe	1	4.5	17	-117.81083000000001	34.046240000000004	Pomona	91768	Indonesian	Coffee & Tea	Chinese	Los Angeles County	403200.0
old-chengdu-restaurant-diamond-bar-2	{'address1': '1220 S Diamond Bar Blvd', 'address2': 'Unit D', 'address3': '', 'city': 'Diamond Bar', 'zip_code': '91765', 'country': 'US', 'state': 'CA', 'display_address': ['1220 S Diamond Bar Blvd', 'Unit D', 'Diamond Bar, CA 91765']}	Old Chengdu Restaurant	2	3.5	79	-117.81071999999999	34.00006	Diamond Bar	91765	Szechuan			Los Angeles County	403324.0
country-kwik-market-and-deli-pomona	{'address1': '3024 W Temple Ave', 'address2': '', 'address3': '', 'city': 'Pomona', 'zip_code': '91766', 'country': 'US', 'state': 'CA', 'display_address': ['3024 W Temple Ave', 'Pomona, CA 91766']}	Country Kwik Market & Deli	1	4.0	49	-117.79798337158	34.04142610543	Pomona	91766	Sandwiches	Delis	Convenience Stores	Los Angeles County	402402.0
silk-road-garden-la-verne	{'address1': '1965 Foothill Blvd', 'address2': '', 'address3': None, 'city': 'La Verne', 'zip_code': '91750', 'country': 'US', 'state': 'CA', 'display_address': ['1965 Foothill Blvd', 'La Verne, CA 91750']}	Silk Road Garden	2	4.0	18	-117.766939	34.1141537	La Verne	91750	Halal	Chinese		Los Angeles County	401601.0
china-food-express-pomona-2	{'address1': '660 Indian Hill Blvd', 'address2': None, 'address3': None, 'city': 'Pomona', 'zip_code': '91767', 'country': 'US', 'state': 'CA', 'display_address': ['660 Indian Hill Blvd', 'Pomona, CA 91767']}	China Food Express	1	3.5	14	-117.7188	34.0651	Pomona	91767	Chinese			Los Angeles County	402702.0
lucky-j-chinese-wok-pomona	{'address1': '2001 S Garey Ave', 'address2': '', 'address3': '', 'city': 'Pomona', 'zip_code': '91766', 'country': 'US', 'state': 'CA', 'display_address': ['2001 S Garey Ave', 'Pomona, CA 91766']}	Lucky J Chinese Wok		4.5	4	-117.75064086914101	34.0355606079102	Pomona	91766	Chinese			Los Angeles County	403000.0
home-depot-hot-dog-cart-pomona	{'address1': '2707 S Towne Ave', 'address2': '', 'address3': '', 'city': 'Pomona', 'zip_code': '91766', 'country': 'US', 'state': 'CA', 'display_address': ['2707 S Towne Ave', 'Pomona, CA 91766']}	Home Depot Hot Dog Cart	1	3.5	9	-117.74146	34.0227	Pomona	91766	Hot Dogs			Los Angeles County	402904.0
mauricios-mexican-food-glendora	{'address1': '2256 E Rt 66', 'address2': '', 'address3': '', 'city': 'Glendora', 'zip_code': '91741', 'country': 'US', 'state': 'CA', 'display_address': ['2256 E Rt 66', 'Glendora, CA 91741']}	Mauricio's Mexican Food	2	4.5	451	-117.820802943538	34.1259146759324	Glendora	91741	Mexican			Los Angeles County	401201.0
blaze-fast-fired-pizza-claremont	{'address1': '1 N Indian Hill Blvd', 'address2': None, 'address3': None, 'city': 'Claremont', 'zip_code': '91711', 'country': 'US', 'state': 'CA', 'display_address': ['1 N Indian Hill Blvd', 'Claremont, CA 91711']}	Blaze Fast Fire'd Pizza	1	4.0	134	-117.7194449	34.0946703	Claremont	91711	Salad	Gluten-Free	Pizza	Los Angeles County	401902.0
bull-demon-king-cafe-diamond-bar	{'address1': '1155 S Diamond Bar Blvd', 'address2': 'Ste E', 'address3': '', 'city': 'Diamond Bar', 'zip_code': '91765', 'country': 'US', 'state': 'CA', 'display_address': ['1155 S Diamond Bar Blvd', 'Ste E', 'Diamond Bar, CA 91765']}	Bull Demon King Cafe	2	3.5	372	-117.811421	34.002278999999994	Diamond Bar	91765	Chinese	Taiwanese		Los Angeles County	403319.0
china-wok-pomona	{'address1': '674 Fairplex Dr', 'address2': '', 'address3': '', 'city': 'Pomona', 'zip_code': '91768', 'country': 'US', 'state': 'CA', 'display_address': ['674 Fairplex Dr', 'Pomona, CA 91768']}	China Wok	1	4.0	69	-117.7874051	34.062262700000005	Pomona	91768	Chinese			Los Angeles County	402406.0
yoshinoya-pomona	{'address1': '2102 S Garey Ave', 'address2': '', 'address3': '', 'city': 'Pomona', 'zip_code': '91766', 'country': 'US', 'state': 'CA', 'display_address': ['2102 S Garey Ave', 'Pomona, CA 91766']}	Yoshinoya	1	2.5	107	-117.74888	34.03297	Pomona	91766	Japanese			Los Angeles County	402902.0
cho-dang-tofu-and-bbq-diamond-bar	{'address1': '1155 S Diamond Bar Blvd', 'address2': 'Ste M', 'address3': '', 'city': 'Diamond Bar', 'zip_code': '91765', 'country': 'US', 'state': 'CA', 'display_address': ['1155 S Diamond Bar Blvd', 'Ste M', 'Diamond Bar, CA 91765']}	Cho Dang Tofu & BBQ	2	4.0	224	-117.81145	34.00233	Diamond Bar	91765	Korean	Barbeque		Los Angeles County	403319.0
the-grove-house-cafe-claremont	{'address1': '1001 Pitzer Service Rd', 'address2': '', 'address3': '', 'city': 'Claremont', 'zip_code': '91711', 'country': 'US', 'state': 'CA', 'display_address': ['1001 Pitzer Service Rd', 'Claremont, CA 91711']}	The Grove House Cafe		5.0	2	-117.705100729232	34.1048639969464	Claremont	91711	Coffee & Tea	Sandwiches	Breakfast & Brunch	Los Angeles County	401901.0
juan-pollo-100-pomona	{'address1': '300 S Garey Ave', 'address2': '', 'address3': '', 'city': 'Pomona', 'zip_code': '91766', 'country': 'US', 'state': 'CA', 'display_address': ['300 S Garey Ave', 'Pomona, CA 91766']}	Juan Pollo 100	1	3.5	54	-117.74996709999999	34.05675170000001	Pomona	91766	Mexican			Los Angeles County	408800.0
krazy-js-cantina-and-grill-pomona	{'address1': '333 S Garey Ave', 'address2': '', 'address3': '', 'city': 'Pomona', 'zip_code': '91766', 'country': 'US', 'state': 'CA', 'display_address': ['333 S Garey Ave', 'Pomona, CA 91766']}	Krazy J's Cantina & Grill	2	3.5	30	-117.750285936789	34.056738994768	Pomona	91766	Sports Bars	Mexican		Los Angeles County	408800.0
food-trucks-at-the-fairplex-pomona	{'address1': '1101 W Mckinley Ave', 'address2': '', 'address3': 'Gate 1', 'city': 'Pomona', 'zip_code': '91768', 'country': 'US', 'state': 'CA', 'display_address': ['1101 W Mckinley Ave', 'Gate 1', 'Pomona, CA 91768']}	Food Trucks At the Fairplex	2	3.5	21	-117.76473674021798	34.0796518940303	Pomona	91768	Food Stands			Los Angeles County	402200.0
kazama-sushi-claremont	{'address1': '101 N Indian Hill Blvd', 'address2': 'Ste C1-104', 'address3': '', 'city': 'Claremont', 'zip_code': '91711', 'country': 'US', 'state': 'CA', 'display_address': ['101 N Indian Hill Blvd', 'Ste C1-104', 'Claremont, CA 91711']}	Kazama Sushi	2	4.0	452	-117.71971	34.09502	Claremont	91711	Sushi Bars	Japanese	Bars	Los Angeles County	401902.0
mr-you-express-claremont	{'address1': '402 Auto Center Dr', 'address2': '', 'address3': '', 'city': 'Claremont', 'zip_code': '91711', 'country': 'US', 'state': 'CA', 'display_address': ['402 Auto Center Dr', 'Claremont, CA 91711']}	Mr You Express	1	3.5	187	-117.71952409999999	34.0805151	Claremont	91711	Chinese			Los Angeles County	402001.0
the-whole-enchilada-diamond-bar	{'address1': '1114 S Diamond Bar Blvd', 'address2': '', 'address3': '', 'city': 'Diamond Bar', 'zip_code': '91765', 'country': 'US', 'state': 'CA', 'display_address': ['1114 S Diamond Bar Blvd', 'Diamond Bar, CA 91765']}	The Whole Enchilada	2	3.5	190	-117.8103848	34.0020729	Diamond Bar	91765	Mexican	Breakfast & Brunch		Los Angeles County	403320.0
icuisine-pomona	{'address1': '3131 N Garey Ave', 'address2': None, 'address3': '', 'city': 'Pomona', 'zip_code': '91767', 'country': 'US', 'state': 'CA', 'display_address': ['3131 N Garey Ave', 'Pomona, CA 91767']}	iCuisine	2	3.5	210	-117.74872490000001	34.104458	Pomona	91767	Persian/Iranian	Italian	American (Traditional)	Los Angeles County	401703.0
grand-buffet-pomona-2	{'address1': '12 Rancho Camino Dr', 'address2': 'Ste 103', 'address3': None, 'city': 'Pomona', 'zip_code': '91766', 'country': 'US', 'state': 'CA', 'display_address': ['12 Rancho Camino Dr', 'Ste 103', 'Pomona, CA 91766']}	Grand Buffet	2	3.0	202	-117.7601	34.02778	Pomona	91766	Buffets	Chinese	Japanese	Los Angeles County	403318.0
the-tamale-guy-claremont	{'address1': '956 W Foothill Blvd', 'address2': '', 'address3': '', 'city': 'Claremont', 'zip_code': '91711', 'country': 'US', 'state': 'CA', 'display_address': ['956 W Foothill Blvd', 'Claremont, CA 91711']}	The Tamale Guy	1	4.0	113	-117.733035693417	34.106665990922195	Claremont	91711	Mexican	Vegetarian	Soup	Los Angeles County	401902.0
crepes-de-paris-claremont	{'address1': '540 W 1st St', 'address2': '', 'address3': '', 'city': 'Claremont', 'zip_code': '91711', 'country': 'US', 'state': 'CA', 'display_address': ['540 W 1st St', 'Claremont, CA 91711']}	Crepes de Paris	2	3.5	182	-117.721389770508	34.0944671630859	Claremont	91711	Creperies			Los Angeles County	401902.0
wingstop-pomona-4	{'address1': '2063 Rancho Valley Drive Suite', 'address2': '', 'address3': '', 'city': 'Pomona', 'zip_code': '91766', 'country': 'US', 'state': 'CA', 'display_address': ['2063 Rancho Valley Drive Suite', 'Pomona, CA 91766']}	Wingstop	1	1.5	168	-117.75777553729601	34.034763500000004	Pomona	91766	Chicken Wings			Los Angeles County	403000.0
flame-broiler-la-verne-2	{'address1': '1548 Foothill Blvd', 'address2': '', 'address3': None, 'city': 'La Verne', 'zip_code': '91750', 'country': 'US', 'state': 'CA', 'display_address': ['1548 Foothill Blvd', 'La Verne, CA 91750']}	Flame Broiler	1	4.0	19	-117.77483864425601	34.1147780992801	La Verne	91750	Fast Food	Korean		Los Angeles County	401603.0
taqueria-guadalupana-pomona	{'address1': '820 E Mission Blvd', 'address2': '', 'address3': '', 'city': 'Pomona', 'zip_code': '91766', 'country': 'US', 'state': 'CA', 'display_address': ['820 E Mission Blvd', 'Pomona, CA 91766']}	Taqueria Guadalupana	1	4.0	20	-117.740856036544	34.0552876889706	Pomona	91766	Mexican			Los Angeles County	402801.0
el-cantarito-pomona	{'address1': '1190 E Mission Blvd', 'address2': '', 'address3': '', 'city': 'Pomona', 'zip_code': '91766', 'country': 'US', 'state': 'CA', 'display_address': ['1190 E Mission Blvd', 'Pomona, CA 91766']}	El Cantarito	1	3.5	21	-117.732866406441	34.0553394397775	Pomona	91766	Mexican	Seafood		Los Angeles County	402801.0
fusion-2-any-1-sushi-and-roll-diamond-bar-2	{'address1': '1261 S Diamond Bar Blvd', 'address2': None, 'address3': None, 'city': 'Diamond Bar', 'zip_code': '91765', 'country': 'US', 'state': 'CA', 'display_address': ['1261 S Diamond Bar Blvd', 'Diamond Bar, CA 91765']}	Fusion 2 Any 1 Sushi & Roll	2	4.0	110	-117.81247638166	33.9989873409922	Diamond Bar	91765	Sushi Bars			Los Angeles County	403323.0
las-margaritas-pomona-2	{'address1': '2108 N Garey Ave', 'address2': '', 'address3': '', 'city': 'Pomona', 'zip_code': '91767', 'country': 'US', 'state': 'CA', 'display_address': ['2108 N Garey Ave', 'Pomona, CA 91767']}	Las Margaritas	2	3.5	55	-117.75107	34.08569	Pomona	91767	Mexican			Los Angeles County	402102.0
angeles-mexican-food-pomona	{'address1': '2068 N Garey Ave', 'address2': None, 'address3': '', 'city': 'Pomona', 'zip_code': '91767', 'country': 'US', 'state': 'CA', 'display_address': ['2068 N Garey Ave', 'Pomona, CA 91767']}	Angeles Mexican Food	1	3.0	120	-117.75176040000001	34.0843424	Pomona	91767	Mexican	Breakfast & Brunch		Los Angeles County	402102.0
diamond-palace-chinese-seafood-restaurant-diamond-bar	{'address1': '225 Gentle Springs Ln', 'address2': '', 'address3': '', 'city': 'Diamond Bar', 'zip_code': '91765', 'country': 'US', 'state': 'CA', 'display_address': ['225 Gentle Springs Ln', 'Diamond Bar, CA 91765']}	Diamond Palace Chinese Seafood Restaurant	2	3.5	236	-117.81197	34.02191	Diamond Bar	91765	Chinese	Seafood		Los Angeles County	403319.0
caffe-allegro-la-verne	{'address1': '2124 3rd St', 'address2': '', 'address3': '', 'city': 'La Verne', 'zip_code': '91750', 'country': 'US', 'state': 'CA', 'display_address': ['2124 3rd St', 'La Verne, CA 91750']}	Caffe Allegro	2	4.0	253	-117.7697393	34.100237299999996	La Verne	91750	Italian	Tapas/Small Plates		Los Angeles County	401500.0
mr-ds-diner-la-verne	{'address1': '919 Foothill Blvd', 'address2': '', 'address3': '', 'city': 'La Verne', 'zip_code': '91750', 'country': 'US', 'state': 'CA', 'display_address': ['919 Foothill Blvd', 'La Verne, CA 91750']}	Mr. D's Diner	2	4.0	329	-117.78865094978701	34.1213518268569	La Verne	91750	American (Traditional)	Burgers	Diners	Los Angeles County	401601.0
marias-tacos-pomona	{'address1': '2407 Valley Blvd', 'address2': 'Ste A4', 'address3': '', 'city': 'Pomona', 'zip_code': '91768', 'country': 'US', 'state': 'CA', 'display_address': ['2407 Valley Blvd', 'Ste A4', 'Pomona, CA 91768']}	Maria's Tacos	1	4.0	56	-117.79627227783199	34.061614990234396	Pomona	91768	Mexican			Los Angeles County	402403.0
poke-poki-la-verne-3	{'address1': '2117 Foothill Blvd', 'address2': 'Ste G', 'address3': '', 'city': 'La Verne', 'zip_code': '91750', 'country': 'US', 'state': 'CA', 'display_address': ['2117 Foothill Blvd', 'Ste G', 'La Verne, CA 91750']}	Poke Poki	2	4.0	90	-117.7636045	34.1130489	La Verne	91750	Poke	Hawaiian		Los Angeles County	401601.0
the-flame-broiler-pomona	{'address1': '22 Rio Rancho Rd', 'address2': '', 'address3': '', 'city': 'Pomona', 'zip_code': '91766', 'country': 'US', 'state': 'CA', 'display_address': ['22 Rio Rancho Rd', 'Pomona, CA 91766']}	The Flame Broiler	1	3.5	17	-117.75573	34.03288	Pomona	91766	Diners	Asian Fusion		Los Angeles County	403000.0
waba-grill-pomona-2	{'address1': '2063 Rancho Valley Dr', 'address2': 'Ste 310', 'address3': None, 'city': 'Pomona', 'zip_code': '91766', 'country': 'US', 'state': 'CA', 'display_address': ['2063 Rancho Valley Dr', 'Ste 310', 'Pomona, CA 91766']}	WaBa Grill	1	3.0	53	-117.759288414205	34.0352394019801	Pomona	91766	Fast Food	Asian Fusion		Los Angeles County	403000.0
cocineros-restaurant-pomona	{'address1': '700 E Arrow Hwy', 'address2': '', 'address3': '', 'city': 'Pomona', 'zip_code': '91767', 'country': 'US', 'state': 'CA', 'display_address': ['700 E Arrow Hwy', 'Pomona, CA 91767']}	Cocineros Restaurant	1	3.5	85	-117.7378695	34.0898351	Pomona	91767	Mexican			Los Angeles County	402102.0
jasmines-cafe-pomona-2	{'address1': '3171 N Garey Ave', 'address2': '', 'address3': '', 'city': 'Pomona', 'zip_code': '91767', 'country': 'US', 'state': 'CA', 'display_address': ['3171 N Garey Ave', 'Pomona, CA 91767']}	Jasmine's Cafe	2	4.5	83	-117.749375922458	34.105412813943	Pomona	91767	Hookah Bars	Mediterranean	Lounges	Los Angeles County	401703.0
mariscos-el-ostion-pomona-3	{'address1': '995 W Mission Blvd', 'address2': '', 'address3': '', 'city': 'Pomona', 'zip_code': '91766', 'country': 'US', 'state': 'CA', 'display_address': ['995 W Mission Blvd', 'Pomona, CA 91766']}	Mariscos El Ostion	2	3.0	97	-117.76075530000001	34.0550374	Pomona	91766	Mexican	Seafood		Los Angeles County	402501.0
mckinleys-grille-pomona	{'address1': '601 W McKinley Ave', 'address2': '', 'address3': 'Sheraton Fairplex Hotel', 'city': 'Pomona', 'zip_code': '91768', 'country': 'US', 'state': 'CA', 'display_address': ['601 W McKinley Ave', 'Sheraton Fairplex Hotel', 'Pomona, CA 91768']}	McKinley's Grille	2	3.0	111	-117.76252020000001	34.0795003	Pomona	91768	Steakhouses	American (New)		Los Angeles County	402200.0
sunrise-donut-and-burger-pomona	{'address1': '2517 N Towne Ave', 'address2': '', 'address3': '', 'city': 'Pomona', 'zip_code': '91767', 'country': 'US', 'state': 'CA', 'display_address': ['2517 N Towne Ave', 'Pomona, CA 91767']}	Sunrise Donut & Burger	1	4.0	24	-117.737123	34.0907057	Pomona	91767	Donuts	Burgers		Los Angeles County	402102.0
bowl-house-la-verne	{'address1': '2075 3rd St', 'address2': '', 'address3': '', 'city': 'La Verne', 'zip_code': '91750', 'country': 'US', 'state': 'CA', 'display_address': ['2075 3rd St', 'La Verne, CA 91750']}	Bowl House	1	4.0	34	-117.77068287134199	34.1006834059954	La Verne	91750	Asian Fusion			Los Angeles County	401500.0
norms-hangar-coffee-shop-la-verne	{'address1': '1615 McKinley Ave', 'address2': '', 'address3': '', 'city': 'La Verne', 'zip_code': '91750', 'country': 'US', 'state': 'CA', 'display_address': ['1615 McKinley Ave', 'La Verne, CA 91750']}	Norm's Hangar Coffee Shop	1	3.0	176	-117.784502	34.090192	La Verne	91750	Coffee & Tea	Breakfast & Brunch		Los Angeles County	401304.0
pattys-mexican-foods-claremont	{'address1': '1332 N Towne Ave', 'address2': '', 'address3': '', 'city': 'Claremont', 'zip_code': '91711', 'country': 'US', 'state': 'CA', 'display_address': ['1332 N Towne Ave', 'Claremont, CA 91711']}	Patty's Mexican Foods	1	4.0	305	-117.73678578436399	34.107844904065104	Claremont	91711	Mexican			Los Angeles County	401800.0
in-n-out-burger-pomona-2	{'address1': '2505 Garey Ave', 'address2': '', 'address3': '', 'city': 'Pomona', 'zip_code': '91766', 'country': 'US', 'state': 'CA', 'display_address': ['2505 Garey Ave', 'Pomona, CA 91766']}	In-N-Out Burger	1	3.5	98	-117.74949130742701	34.0258061685126	Pomona	91766	Fast Food	Burgers		Los Angeles County	403000.0
dennys-pomona-2	{'address1': '3012 W Temple Ave', 'address2': '', 'address3': '', 'city': 'Pomona', 'zip_code': '91766', 'country': 'US', 'state': 'CA', 'display_address': ['3012 W Temple Ave', 'Pomona, CA 91766']}	Denny's	1	2.5	122	-117.79811650514601	34.0410228035131	Pomona	91766	Diners	Breakfast & Brunch	American (Traditional)	Los Angeles County	402402.0
golden-ox-2-pomona	{'address1': '405 W Holt Ave', 'address2': '', 'address3': '', 'city': 'Pomona', 'zip_code': '91768', 'country': 'US', 'state': 'CA', 'display_address': ['405 W Holt Ave', 'Pomona, CA 91768']}	Golden Ox 2	1	3.5	37	-117.75498	34.0626	Pomona	91768	American (Traditional)	Burgers		Los Angeles County	402303.0
farmer-boys-pomona	{'address1': '2790 N Garey Ave', 'address2': '', 'address3': '', 'city': 'Pomona', 'zip_code': '91767', 'country': 'US', 'state': 'CA', 'display_address': ['2790 N Garey Ave', 'Pomona, CA 91767']}	Farmer Boys	1	3.0	84	-117.74795	34.09592	Pomona	91767	Breakfast & Brunch			Los Angeles County	401704.0
mexicali-grill-pomona	{'address1': '636 E Holt Ave', 'address2': '', 'address3': '', 'city': 'Pomona', 'zip_code': '91767', 'country': 'US', 'state': 'CA', 'display_address': ['636 E Holt Ave', 'Pomona, CA 91767']}	Mexicali Grill	1	4.0	8	-117.73832336068199	34.062626212835305	Pomona	91767	Mexican			Los Angeles County	402600.0
roadys-restaurant-san-dimas	{'address1': '160 W Bonita Ave', 'address2': '', 'address3': '', 'city': 'San Dimas', 'zip_code': '91773', 'country': 'US', 'state': 'CA', 'display_address': ['160 W Bonita Ave', 'San Dimas, CA 91773']}	Roady's Restaurant	1	3.5	179	-117.8087571	34.1065151	San Dimas	91773	Breakfast & Brunch			Los Angeles County	401311.0
albertos-mexican-food-pomona-4	{'address1': '1925 W Holt Blvd', 'address2': '', 'address3': '', 'city': 'Pomona', 'zip_code': '91768', 'country': 'US', 'state': 'CA', 'display_address': ['1925 W Holt Blvd', 'Pomona, CA 91768']}	Alberto's Mexican Food	1	3.0	73	-117.78443	34.06207	Pomona	91768	Mexican			Los Angeles County	402406.0
mi-lindo-apatzingan-pomona-2	{'address1': '777 N Indian Hill Blvd', 'address2': '', 'address3': '', 'city': 'Pomona', 'zip_code': '91767', 'country': 'US', 'state': 'CA', 'display_address': ['777 N Indian Hill Blvd', 'Pomona, CA 91767']}	Mi Lindo Apatzingan	1	4.0	12	-117.71993	34.06657	Pomona	91767	Seafood	Mexican		Los Angeles County	402702.0
mongolian-barbeque-claremont	{'address1': '970 W Foothill Blvd', 'address2': '', 'address3': '', 'city': 'Claremont', 'zip_code': '91711', 'country': 'US', 'state': 'CA', 'display_address': ['970 W Foothill Blvd', 'Claremont, CA 91711']}	Mongolian Barbeque	2	3.5	245	-117.73361968994101	34.106716156005895	Claremont	91711	Mongolian			Los Angeles County	401902.0
pollos-kikiryki-claremont-2	{'address1': '344 S Indian Hill Blvd', 'address2': '', 'address3': '', 'city': 'Claremont', 'zip_code': '91711', 'country': 'US', 'state': 'CA', 'display_address': ['344 S Indian Hill Blvd', 'Claremont, CA 91711']}	Pollos Kikiryki	2	3.5	221	-117.71828466033999	34.089797643423	Claremont	91711	Peruvian			Los Angeles County	402002.0
buca-di-beppo-claremont-5	{'address1': '505 W Foothill Blvd', 'address2': '', 'address3': '', 'city': 'Claremont', 'zip_code': '91711', 'country': 'US', 'state': 'CA', 'display_address': ['505 W Foothill Blvd', 'Claremont, CA 91711']}	Buca di Beppo Italian Restaurant	2	3.0	795	-117.72281952202299	34.1073685489985	Claremont	91711	Italian			Los Angeles County	401800.0
warehouse-pizza-la-verne	{'address1': '2340 D St', 'address2': '', 'address3': '', 'city': 'La Verne', 'zip_code': '91750', 'country': 'US', 'state': 'CA', 'display_address': ['2340 D St', 'La Verne, CA 91750']}	Warehouse Pizza	2	4.0	441	-117.769676208496	34.1011123657227	La Verne	91750	Pizza			Los Angeles County	401500.0
valentinos-pizzeria-pomona	{'address1': '644 E Arrow Hwy', 'address2': '', 'address3': '', 'city': 'Pomona', 'zip_code': '91767', 'country': 'US', 'state': 'CA', 'display_address': ['644 E Arrow Hwy', 'Pomona, CA 91767']}	Valentino's Pizzeria	1	4.0	191	-117.738473	34.089943	Pomona	91767	Pizza			Los Angeles County	402102.0
